[
  {
    "id": "msha-0100096",
    "name": "BORAL CLAY PITS",
    "operator": "General Shale Brick, Inc.",
    "commodity": "Sand, Industrial NEC",
    "mineral_match": [
      "Silicon"
    ],
    "state": "AL",
    "county": "Russell",
    "lat": 32.395,
    "lon": -85.008333,
    "employment": 4,
    "status": "Active",
    "mine_type": "Surface"
  },
  {
    "id": "msha-0103135",
    "name": "Coldwater Quarry",
    "operator": "Vulcan Materials Asphalt and Construction, LLC",
    "commodity": "Crushed, Broken Quartzite",
    "mineral_match": [
      "Silicon"
    ],
    "state": "AL",
    "county": "Calhoun",
    "lat": 33.6025,
    "lon": -85.875833,
    "employment": 13,
    "status": "Active",
    "mine_type": "Surface"
  },
  {
    "id": "msha-0103427",
    "name": "Pope Pit #2",
    "operator": "Fuller Gravel Co LLC",
    "commodity": "Construction Sand and Gravel",
    "mineral_match": [
      "Silicon"
    ],
    "state": "AL",
    "county": "Clarke",
    "lat": 31.5725,
    "lon": -87.648333,
    "employment": 2,
    "status": "Intermittent",
    "mine_type": "Surface"
  },
  {
    "id": "msha-0103482",
    "name": "Guntersville Sand",
    "operator": "Summit Materials LLC",
    "commodity": "Sand, Industrial NEC",
    "mineral_match": [
      "Silicon"
    ],
    "state": "AL",
    "county": "Marshall",
    "lat": 34.261944,
    "lon": -86.440278,
    "employment": 4,
    "status": "Active",
    "mine_type": "Surface"
  },
  {
    "id": "msha-0103588",
    "name": "Luster Pit",
    "operator": "Elmore Sand & Gravel, Inc",
    "commodity": "Sand, Industrial NEC",
    "mineral_match": [
      "Silicon"
    ],
    "state": "AL",
    "county": "Autauga",
    "lat": 32.761389,
    "lon": -86.526944,
    "employment": 4,
    "status": "Active",
    "mine_type": "Surface"
  },
  {
    "id": "msha-0103597",
    "name": "Baylor Pit",
    "operator": "Little River Materials",
    "commodity": "Sand, Industrial NEC",
    "mineral_match": [
      "Silicon"
    ],
    "state": "AL",
    "county": "Autauga",
    "lat": 32.395278,
    "lon": -86.142222,
    "employment": 2,
    "status": "Active",
    "mine_type": "Surface"
  },
  {
    "id": "msha-0103598",
    "name": "Stange",
    "operator": "Little River Materials LLC",
    "commodity": "Sand, Industrial NEC",
    "mineral_match": [
      "Silicon"
    ],
    "state": "AL",
    "county": "Autauga",
    "lat": 32.486389,
    "lon": -86.503889,
    "employment": 1,
    "status": "Intermittent",
    "mine_type": "Surface"
  },
  {
    "id": "msha-0103608",
    "name": "GOB Farms",
    "operator": "GOB Farms LLC",
    "commodity": "Sand, Industrial NEC",
    "mineral_match": [
      "Silicon"
    ],
    "state": "AL",
    "county": "Walker",
    "lat": 33.922222,
    "lon": -87.295833,
    "employment": 4,
    "status": "Active",
    "mine_type": "Surface"
  },
  {
    "id": "msha-0103619",
    "name": "Henderson",
    "operator": "South AL Sand and Gravel, INC",
    "commodity": "Sand, Industrial NEC",
    "mineral_match": [
      "Silicon"
    ],
    "state": "AL",
    "county": "Monroe",
    "lat": 31.415556,
    "lon": -87.243611,
    "employment": 5,
    "status": "Active",
    "mine_type": "Surface"
  },
  {
    "id": "msha-0103620",
    "name": "Turkey Trot",
    "operator": "South AL Sand and Gravel, INC",
    "commodity": "Sand, Industrial NEC",
    "mineral_match": [
      "Silicon"
    ],
    "state": "AL",
    "county": "Monroe",
    "lat": 31.483056,
    "lon": -87.466389,
    "employment": 4,
    "status": "Active",
    "mine_type": "Surface"
  },
  {
    "id": "msha-0103621",
    "name": "Shorter Pit",
    "operator": "Central Alabama Aggregates, LLC.",
    "commodity": "Sand, Industrial NEC",
    "mineral_match": [
      "Silicon"
    ],
    "state": "AL",
    "county": "Macon",
    "lat": 32.399722,
    "lon": -85.925556,
    "employment": 4,
    "status": "Active",
    "mine_type": "Surface"
  },
  {
    "id": "msha-0103623",
    "name": "PERDUE HILL PIT",
    "operator": "RANDALL JASON HYATT, INC.",
    "commodity": "Sand, Industrial NEC",
    "mineral_match": [
      "Silicon"
    ],
    "state": "AL",
    "county": "Monroe",
    "lat": 31.486667,
    "lon": -87.466389,
    "employment": 5,
    "status": "Active",
    "mine_type": "Surface"
  },
  {
    "id": "msha-0103630",
    "name": "Carroll Pit",
    "operator": "Little River Materials",
    "commodity": "Sand, Industrial NEC",
    "mineral_match": [
      "Silicon"
    ],
    "state": "AL",
    "county": "Autauga",
    "lat": 32.441111,
    "lon": -86.6525,
    "employment": 1,
    "status": "Active",
    "mine_type": "Surface"
  },
  {
    "id": "msha-0103631",
    "name": "Andress Pit",
    "operator": "South Alabama Materials",
    "commodity": "Sand, Industrial NEC",
    "mineral_match": [
      "Silicon"
    ],
    "state": "AL",
    "county": "Monroe",
    "lat": 31.510556,
    "lon": -87.364167,
    "employment": 5,
    "status": "Active",
    "mine_type": "Surface"
  },
  {
    "id": "msha-0103636",
    "name": "Pit 31 Castleberry",
    "operator": "Suncoast Sand & Gravel LLC",
    "commodity": "Sand, Industrial NEC",
    "mineral_match": [
      "Silicon"
    ],
    "state": "AL",
    "county": "Conecuh",
    "lat": 31.306667,
    "lon": -87.0425,
    "employment": 3,
    "status": "Active",
    "mine_type": "Surface"
  },
  {
    "id": "msha-0103638",
    "name": "Landsdown Montgomery Plant",
    "operator": "Landsdown Corporation",
    "commodity": "Sand, Industrial NEC",
    "mineral_match": [
      "Silicon"
    ],
    "state": "AL",
    "county": "Montgomery",
    "lat": 32.374167,
    "lon": -86.306667,
    "employment": 6,
    "status": "Active",
    "mine_type": "Surface"
  },
  {
    "id": "msha-0103640",
    "name": "CRETECON INNOVATIONS, LLC",
    "operator": "CRETECON INNOVATIONS, LLC",
    "commodity": "Sand, Industrial NEC",
    "mineral_match": [
      "Silicon"
    ],
    "state": "AL",
    "county": "Autauga",
    "lat": 32.6425,
    "lon": -86.667778,
    "employment": 5,
    "status": "Active",
    "mine_type": "Surface"
  },
  {
    "id": "msha-0200024",
    "name": "Freeport-McMoRan Morenci Inc.",
    "operator": "Freeport-McMoRan Morenci Inc.",
    "commodity": "Copper",
    "mineral_match": [
      "Copper"
    ],
    "state": "AZ",
    "county": "Greenlee",
    "lat": 33.063333,
    "lon": -109.335,
    "employment": 5870,
    "status": "Active",
    "mine_type": "Surface"
  },
  {
    "id": "msha-0200112",
    "name": "Freeport McMoRan Miami Inc",
    "operator": "Freeport McMoRan Miami Inc",
    "commodity": "Copper",
    "mineral_match": [
      "Copper"
    ],
    "state": "AZ",
    "county": "Gila",
    "lat": 33.409722,
    "lon": -110.8525,
    "employment": 150,
    "status": "Active",
    "mine_type": "Surface"
  },
  {
    "id": "msha-0200134",
    "name": "SILVER BELL MINING LLC",
    "operator": "ASARCO LLC, a Delaware Limited Liability Company",
    "commodity": "Copper",
    "mineral_match": [
      "Copper"
    ],
    "state": "AZ",
    "county": "Pima",
    "lat": 32.390556,
    "lon": -111.216667,
    "employment": 182,
    "status": "Active",
    "mine_type": "Surface"
  },
  {
    "id": "msha-0200135",
    "name": "MISSION/SAN XAVIER/EISENHOWER",
    "operator": "ASARCO LLC, a Delaware Limited Liability Company",
    "commodity": "Copper",
    "mineral_match": [
      "Copper"
    ],
    "state": "AZ",
    "county": "Pima",
    "lat": 31.998333,
    "lon": -111.0525,
    "employment": 447,
    "status": "Active",
    "mine_type": "Surface"
  },
  {
    "id": "msha-0200137",
    "name": "Freeport-McMoRan Bagdad Inc",
    "operator": "Freeport-McMoRan Bagdad Inc",
    "commodity": "Copper",
    "mineral_match": [
      "Copper"
    ],
    "state": "AZ",
    "county": "Yavapai",
    "lat": 34.594722,
    "lon": -113.168611,
    "employment": 1600,
    "status": "Active",
    "mine_type": "Surface"
  },
  {
    "id": "msha-0200144",
    "name": "Freeport-McMoRan Sierrita Ops.",
    "operator": "Freeport-McMoRan Sierrita Ops.",
    "commodity": "Copper",
    "mineral_match": [
      "Copper"
    ],
    "state": "AZ",
    "county": "Pima",
    "lat": 31.875833,
    "lon": -111.101111,
    "employment": 1074,
    "status": "Active",
    "mine_type": "Surface"
  },
  {
    "id": "msha-0200150",
    "name": "RAY MINE",
    "operator": "Asarco LLC",
    "commodity": "Copper",
    "mineral_match": [
      "Copper"
    ],
    "state": "AZ",
    "county": "Gila",
    "lat": 33.176667,
    "lon": -110.988333,
    "employment": 630,
    "status": "Active",
    "mine_type": "Surface"
  },
  {
    "id": "msha-0200826",
    "name": "Hayden Concentrator",
    "operator": "Asarco LLC",
    "commodity": "Copper",
    "mineral_match": [
      "Copper"
    ],
    "state": "AZ",
    "county": "Gila",
    "lat": 33.007222,
    "lon": -110.784444,
    "employment": 135,
    "status": "Active",
    "mine_type": "Surface"
  },
  {
    "id": "msha-0200843",
    "name": "Mineral Park",
    "operator": "Origin Mining Company, LLC.",
    "commodity": "Copper",
    "mineral_match": [
      "Copper"
    ],
    "state": "AZ",
    "county": "Mohave",
    "lat": 35.335,
    "lon": -114.178611,
    "employment": 208,
    "status": "Active",
    "mine_type": "Surface"
  },
  {
    "id": "msha-0201656",
    "name": "Copper Queen Branch",
    "operator": "Freeport McMoRan Corporation",
    "commodity": "Copper",
    "mineral_match": [
      "Copper"
    ],
    "state": "AZ",
    "county": "Cochise",
    "lat": 31.424444,
    "lon": -109.894167,
    "employment": 10,
    "status": "Active",
    "mine_type": "Surface"
  },
  {
    "id": "msha-0202367",
    "name": "Moss Mine",
    "operator": "Golden Vertex Corp",
    "commodity": "Gold",
    "mineral_match": [
      "Silver"
    ],
    "state": "AZ",
    "county": "Mohave",
    "lat": 35.074444,
    "lon": -114.554444,
    "employment": 71,
    "status": "Active",
    "mine_type": "Surface"
  },
  {
    "id": "msha-0202503",
    "name": "Crusher 1",
    "operator": "Freeport McMoRan Miami Inc",
    "commodity": "Silicon",
    "mineral_match": [
      "Silicon"
    ],
    "state": "AZ",
    "county": "Gila",
    "lat": 33.4125,
    "lon": -110.865833,
    "employment": 7,
    "status": "Active",
    "mine_type": "Surface"
  },
  {
    "id": "msha-0202579",
    "name": "Cyprus Tohono Corporation",
    "operator": "Cyprus Tohono Corp",
    "commodity": "Copper",
    "mineral_match": [
      "Copper"
    ],
    "state": "AZ",
    "county": "Pinal",
    "lat": 32.514444,
    "lon": -111.888889,
    "employment": 16,
    "status": "Active",
    "mine_type": "Surface"
  },
  {
    "id": "msha-0202620",
    "name": "Gold Road Mine",
    "operator": "Gold Road Mining Corp",
    "commodity": "Gold",
    "mineral_match": [
      "Silver"
    ],
    "state": "AZ",
    "county": "Mohave",
    "lat": 35.006944,
    "lon": -114.453056,
    "employment": 58,
    "status": "Active",
    "mine_type": "Underground"
  },
  {
    "id": "msha-0202653",
    "name": "Carlota Copper Company",
    "operator": "Carlota Copper Company",
    "commodity": "Copper",
    "mineral_match": [
      "Copper"
    ],
    "state": "AZ",
    "county": "Gila",
    "lat": 33.399167,
    "lon": -110.868611,
    "employment": 63,
    "status": "Active",
    "mine_type": "Surface"
  },
  {
    "id": "msha-0202668",
    "name": "WASH PLANT",
    "operator": "Willcox Rock & Sand Inc",
    "commodity": "Sand, Industrial NEC",
    "mineral_match": [
      "Silicon"
    ],
    "state": "AZ",
    "county": "Cochise",
    "lat": 32.248611,
    "lon": -109.825,
    "employment": 4,
    "status": "Active",
    "mine_type": "Surface"
  },
  {
    "id": "msha-0202824",
    "name": "Gunnison & Johnson Camp Mines",
    "operator": "Gunnison Copper Corp.",
    "commodity": "Copper",
    "mineral_match": [
      "Copper"
    ],
    "state": "AZ",
    "county": "Cochise",
    "lat": 32.095278,
    "lon": -110.055556,
    "employment": 42,
    "status": "Active",
    "mine_type": "Surface"
  },
  {
    "id": "msha-0203131",
    "name": "Freeport-McMoRan Safford Inc",
    "operator": "Freeport-McMoRan Safford Inc",
    "commodity": "Copper",
    "mineral_match": [
      "Copper"
    ],
    "state": "AZ",
    "county": "Graham",
    "lat": 32.955278,
    "lon": -109.701111,
    "employment": 1071,
    "status": "Active",
    "mine_type": "Surface"
  },
  {
    "id": "msha-0203166",
    "name": "Fisher Industries Plant 37",
    "operator": "Fisher Sand & Gravel Company",
    "commodity": "Copper",
    "mineral_match": [
      "Copper"
    ],
    "state": "TX",
    "county": "Webb",
    "lat": 27.275556,
    "lon": -99.483333,
    "employment": 10,
    "status": "Intermittent",
    "mine_type": "Surface"
  },
  {
    "id": "msha-0203270",
    "name": "Silica Services Mining, LLC",
    "operator": "Silica Services Mining, LLC",
    "commodity": "Sand, Industrial NEC",
    "mineral_match": [
      "Silicon"
    ],
    "state": "AZ",
    "county": "Apache",
    "lat": 35.216389,
    "lon": -109.333611,
    "employment": 130,
    "status": "Active",
    "mine_type": "Surface"
  },
  {
    "id": "msha-0203344",
    "name": "Vulture Mine",
    "operator": "Vulture Peak Holding LLC",
    "commodity": "Gold",
    "mineral_match": [
      "Silver"
    ],
    "state": "AZ",
    "county": "Maricopa",
    "lat": 33.82,
    "lon": -112.833056,
    "employment": 10,
    "status": "Intermittent",
    "mine_type": "Surface"
  },
  {
    "id": "msha-0203352",
    "name": "The Gravel Pit",
    "operator": "The Gravel Pit",
    "commodity": "Sand, Industrial NEC",
    "mineral_match": [
      "Silicon"
    ],
    "state": "AZ",
    "county": "Mohave",
    "lat": 34.895278,
    "lon": -114.552222,
    "employment": 7,
    "status": "Active",
    "mine_type": "Surface"
  },
  {
    "id": "msha-0203405",
    "name": "Silverbell Screen and Crush",
    "operator": "Ames Construction, Inc",
    "commodity": "Sand, Industrial NEC",
    "mineral_match": [
      "Silicon"
    ],
    "state": "AZ",
    "county": "Graham",
    "lat": 32.939444,
    "lon": -109.696111,
    "employment": 4,
    "status": "Intermittent",
    "mine_type": "Surface"
  },
  {
    "id": "msha-0203423",
    "name": "Henrietta Mine",
    "operator": "Henrietta Mine, LLC",
    "commodity": "Gold",
    "mineral_match": [
      "Silver"
    ],
    "state": "AZ",
    "county": "Yavapai",
    "lat": 34.368056,
    "lon": -112.118333,
    "employment": 3,
    "status": "Intermittent",
    "mine_type": "Surface"
  },
  {
    "id": "msha-0203445",
    "name": "Fraguita Mill Site",
    "operator": "GoodMark Capital Group Inc.",
    "commodity": "Gold",
    "mineral_match": [
      "Silver"
    ],
    "state": "AZ",
    "county": "Pima",
    "lat": 31.563017,
    "lon": -111.321742,
    "employment": 4,
    "status": "Active",
    "mine_type": "Facility"
  },
  {
    "id": "msha-0203480",
    "name": "GCE Blaisdell Mine",
    "operator": "Gutierrez Canales Engineering, PC",
    "commodity": "Sand, Industrial NEC",
    "mineral_match": [
      "Silicon"
    ],
    "state": "AZ",
    "county": "Yuma",
    "lat": 32.667222,
    "lon": -114.550278,
    "employment": 17,
    "status": "Intermittent",
    "mine_type": "Surface"
  },
  {
    "id": "msha-0203490",
    "name": "Globe Mill",
    "operator": "Silver Bullet Holdings",
    "commodity": "Silver",
    "mineral_match": [
      "Silver"
    ],
    "state": "AZ",
    "county": "Gila",
    "lat": 33.399722,
    "lon": -110.788889,
    "employment": 4,
    "status": "Intermittent",
    "mine_type": "Surface"
  },
  {
    "id": "msha-0203496",
    "name": "Portable Crusher No. 2",
    "operator": "Rango Inc.",
    "commodity": "Copper",
    "mineral_match": [
      "Copper"
    ],
    "state": "AZ",
    "county": "Pinal",
    "lat": 33.381111,
    "lon": -110.948333,
    "employment": 3,
    "status": "Intermittent",
    "mine_type": "Surface"
  },
  {
    "id": "msha-0203509",
    "name": "Rising Fawn",
    "operator": "Power Train Plus",
    "commodity": "Gold",
    "mineral_match": [
      "Silver"
    ],
    "state": "AZ",
    "county": "Mohave",
    "lat": 35.190278,
    "lon": -114.437222,
    "employment": 2,
    "status": "Intermittent",
    "mine_type": "Surface"
  },
  {
    "id": "msha-0203522",
    "name": "Welton",
    "operator": "Onyx crushing AZ LLC",
    "commodity": "Sand, Industrial NEC",
    "mineral_match": [
      "Silicon"
    ],
    "state": "AZ",
    "county": "Yuma",
    "lat": 32.757778,
    "lon": -114.040833,
    "employment": 5,
    "status": "Intermittent",
    "mine_type": "Surface"
  },
  {
    "id": "msha-0203532",
    "name": "Gladiator Mine",
    "operator": "Gladiator Gold Mines Corp",
    "commodity": "Gold",
    "mineral_match": [
      "Silver"
    ],
    "state": "AZ",
    "county": "Yavapai",
    "lat": 34.233056,
    "lon": -112.333056,
    "employment": 3,
    "status": "New Mine",
    "mine_type": "Surface"
  },
  {
    "id": "msha-0300257",
    "name": "Arkansas Operations Mill",
    "operator": "Almatis Inc",
    "commodity": "Alumina",
    "mineral_match": [
      "Aluminum"
    ],
    "state": "AR",
    "county": "Saline",
    "lat": 34.582778,
    "lon": -92.535278,
    "employment": 140,
    "status": "Active",
    "mine_type": "Facility"
  },
  {
    "id": "msha-0300261",
    "name": "U.S. Vanadium - Benton, LLC",
    "operator": "US Vanadium - Benton, LLC",
    "commodity": "Aluminum",
    "mineral_match": [
      "Aluminum"
    ],
    "state": "AR",
    "county": "Saline",
    "lat": 34.583889,
    "lon": -92.516389,
    "employment": 5,
    "status": "Active",
    "mine_type": "Surface"
  },
  {
    "id": "msha-0300299",
    "name": "Malvern Minerals Sandstone Quarry",
    "operator": "Malvern Minerals Company",
    "commodity": "Quartz, Ground",
    "mineral_match": [
      "Silicon"
    ],
    "state": "AR",
    "county": "Garland",
    "lat": 34.503611,
    "lon": -93.055278,
    "employment": 19,
    "status": "Active",
    "mine_type": "Surface"
  },
  {
    "id": "msha-0300479",
    "name": "US Vanadium, LLC",
    "operator": "US Vanadium, LLC",
    "commodity": "Vanadium",
    "mineral_match": [
      "Vanadium"
    ],
    "state": "AR",
    "county": "Garland",
    "lat": 34.463611,
    "lon": -92.9475,
    "employment": 73,
    "status": "Active",
    "mine_type": "Surface"
  },
  {
    "id": "msha-0300681",
    "name": "BLOCKER LEAD #4",
    "operator": "Ron Coleman Mining Inc",
    "commodity": "Quartz, Crystal",
    "mineral_match": [
      "Silicon"
    ],
    "state": "AR",
    "county": "Garland",
    "lat": 35.201111,
    "lon": -91.831944,
    "employment": 5,
    "status": "Active",
    "mine_type": "Surface"
  },
  {
    "id": "msha-0301530",
    "name": "PHANTOM",
    "operator": "Wegner Enterprises Inc",
    "commodity": "Quartz, Crystal",
    "mineral_match": [
      "Silicon"
    ],
    "state": "AR",
    "county": "Montgomery",
    "lat": 34.512778,
    "lon": -93.639167,
    "employment": 3,
    "status": "Intermittent",
    "mine_type": "Surface"
  },
  {
    "id": "msha-0301607",
    "name": "Fort Smith Plant",
    "operator": "Covia ISP, Inc.",
    "commodity": "Sand, Industrial NEC",
    "mineral_match": [
      "Silicon"
    ],
    "state": "AR",
    "county": "Sebastian",
    "lat": 35.430278,
    "lon": -94.378056,
    "employment": 59,
    "status": "Active",
    "mine_type": "Facility"
  },
  {
    "id": "msha-0301615",
    "name": "COLLIER CREEK",
    "operator": "Crystal City, Inc",
    "commodity": "Quartz, Crystal",
    "mineral_match": [
      "Silicon"
    ],
    "state": "AR",
    "county": "Montgomery",
    "lat": 34.455,
    "lon": -93.680278,
    "employment": 2,
    "status": "Intermittent",
    "mine_type": "Surface"
  },
  {
    "id": "msha-0301916",
    "name": "B & B MATERIALS",
    "operator": "B & B MATERIALS LLC",
    "commodity": "Sand, Industrial NEC",
    "mineral_match": [
      "Silicon"
    ],
    "state": "AR",
    "county": "Pulaski",
    "lat": 34.723889,
    "lon": -92.1225,
    "employment": 3,
    "status": "Active",
    "mine_type": "Surface"
  },
  {
    "id": "msha-0301926",
    "name": "Alabama Mine",
    "operator": "McGeorge Contracting Co., Inc.",
    "commodity": "Aluminum",
    "mineral_match": [
      "Aluminum"
    ],
    "state": "AR",
    "county": "Saline",
    "lat": 34.558611,
    "lon": -92.506667,
    "employment": 6,
    "status": "Active",
    "mine_type": "Surface"
  },
  {
    "id": "msha-0301937",
    "name": "Sheridan White Rock Inc.-Blake Rd",
    "operator": "Sheridan White Rock, Inc.",
    "commodity": "Sand, Industrial NEC",
    "mineral_match": [
      "Silicon"
    ],
    "state": "AR",
    "county": "Grant",
    "lat": 34.299722,
    "lon": -92.39,
    "employment": 3,
    "status": "Active",
    "mine_type": "Surface"
  },
  {
    "id": "msha-0301979",
    "name": "Section 27",
    "operator": "SEMCOA",
    "commodity": "Aluminum",
    "mineral_match": [
      "Aluminum"
    ],
    "state": "AR",
    "county": "Saline",
    "lat": 34.535,
    "lon": -92.513611,
    "employment": 27,
    "status": "Active",
    "mine_type": "Surface"
  },
  {
    "id": "msha-0301986",
    "name": "Possum Grape",
    "operator": "Summit Sand & Aggregates LLC",
    "commodity": "Sand, Industrial NEC",
    "mineral_match": [
      "Silicon"
    ],
    "state": "AR",
    "county": "Independence",
    "lat": 35.630833,
    "lon": -91.460278,
    "employment": 3,
    "status": "Intermittent",
    "mine_type": "Surface"
  },
  {
    "id": "msha-0302026",
    "name": "Batesville Plant #15",
    "operator": "Capital Sand Company, Inc.",
    "commodity": "Sand, Industrial NEC",
    "mineral_match": [
      "Silicon"
    ],
    "state": "AR",
    "county": "Independence",
    "lat": 35.7725,
    "lon": -91.671111,
    "employment": 5,
    "status": "Active",
    "mine_type": "Surface"
  },
  {
    "id": "msha-0302050",
    "name": "East Cave City Quarry",
    "operator": "American Silica, LLC",
    "commodity": "Sand, Industrial NEC",
    "mineral_match": [
      "Silicon"
    ],
    "state": "AR",
    "county": "Sharp",
    "lat": 35.915,
    "lon": -91.436667,
    "employment": 20,
    "status": "Active",
    "mine_type": "Surface"
  },
  {
    "id": "msha-0302057",
    "name": "Cave City",
    "operator": "Summit Sand & Aggregates LLC",
    "commodity": "Sand, Industrial NEC",
    "mineral_match": [
      "Silicon"
    ],
    "state": "AR",
    "county": "Independence",
    "lat": 35.92,
    "lon": -91.600278,
    "employment": 3,
    "status": "Intermittent",
    "mine_type": "Surface"
  },
  {
    "id": "msha-0302069",
    "name": "Fisher Mountain",
    "operator": "Avant Mining LLC",
    "commodity": "Quartz, Crystal",
    "mineral_match": [
      "Silicon"
    ],
    "state": "AR",
    "county": "Montgomery",
    "lat": 34.556944,
    "lon": -93.631111,
    "employment": 5,
    "status": "Active",
    "mine_type": "Surface"
  },
  {
    "id": "msha-0302086",
    "name": "Pine Ridge Crystals",
    "operator": "Pine Ridge Crystals LLC",
    "commodity": "Quartz, Crystal",
    "mineral_match": [
      "Silicon"
    ],
    "state": "AR",
    "county": "Montgomery",
    "lat": 34.611389,
    "lon": -93.832778,
    "employment": 5,
    "status": "Intermittent",
    "mine_type": "Surface"
  },
  {
    "id": "msha-0302097",
    "name": "Rubie Mine",
    "operator": "Arkansas Miners Pick",
    "commodity": "Quartz, Crystal",
    "mineral_match": [
      "Silicon"
    ],
    "state": "AR",
    "county": "Montgomery",
    "lat": 34.5417,
    "lon": -93.5812,
    "employment": 3,
    "status": "Intermittent",
    "mine_type": "Surface"
  },
  {
    "id": "msha-0400023",
    "name": "Napa Quarry",
    "operator": "CalMat Co",
    "commodity": "Sand, Industrial NEC",
    "mineral_match": [
      "Silicon"
    ],
    "state": "CA",
    "county": "Napa",
    "lat": 38.261944,
    "lon": -122.275833,
    "employment": 50,
    "status": "Active",
    "mine_type": "Surface"
  },
  {
    "id": "msha-0400743",
    "name": "Boron Operations",
    "operator": "U S Borax Inc",
    "commodity": "Boron",
    "mineral_match": [
      "Boron"
    ],
    "state": "CA",
    "county": "Kern",
    "lat": 35.022222,
    "lon": -117.703333,
    "employment": 624,
    "status": "Active",
    "mine_type": "Surface"
  },
  {
    "id": "msha-0401097",
    "name": "Dunn Mill",
    "operator": "Pacific Mining and Minerals, LLC",
    "commodity": "Potash",
    "mineral_match": [
      "Potash"
    ],
    "state": "CA",
    "county": "San Bernardino",
    "lat": 35.045556,
    "lon": -116.439167,
    "employment": 3,
    "status": "Intermittent",
    "mine_type": "Facility"
  },
  {
    "id": "msha-0401888",
    "name": "Canyon Rock Plant",
    "operator": "Gillibrand Industrial Sands, LLC",
    "commodity": "Sand, Industrial NEC",
    "mineral_match": [
      "Silicon"
    ],
    "state": "CA",
    "county": "Ventura",
    "lat": 34.3325,
    "lon": -118.716944,
    "employment": 55,
    "status": "Active",
    "mine_type": "Surface"
  },
  {
    "id": "msha-0402542",
    "name": "Mt Pass Mine & Mill",
    "operator": "MP Mine Operations, LLC.",
    "commodity": "Rare Earths",
    "mineral_match": [
      "Cerium",
      "Dysprosium",
      "Erbium",
      "Europium",
      "Gadolinium",
      "Holmium",
      "Lanthanum",
      "Lutetium",
      "Neodymium",
      "Praseodymium",
      "Samarium",
      "Scandium",
      "Terbium",
      "Thulium",
      "Ytterbium",
      "Yttrium"
    ],
    "state": "CA",
    "county": "San Bernardino",
    "lat": 35.471944,
    "lon": -115.574444,
    "employment": 790,
    "status": "Active",
    "mine_type": "Surface"
  },
  {
    "id": "msha-0402801",
    "name": "Orange County Operation",
    "operator": "Lapeyre Industrial Sands LLC",
    "commodity": "Sand, Industrial NEC",
    "mineral_match": [
      "Silicon"
    ],
    "state": "CA",
    "county": "Orange",
    "lat": 33.513889,
    "lon": -117.580556,
    "employment": 43,
    "status": "Active",
    "mine_type": "Surface"
  },
  {
    "id": "msha-0402834",
    "name": "Owens Lake Mine",
    "operator": "U S Borax Inc",
    "commodity": "Trona",
    "mineral_match": [
      "Boron"
    ],
    "state": "CA",
    "county": "Inyo",
    "lat": 36.610556,
    "lon": -118.065556,
    "employment": 5,
    "status": "Intermittent",
    "mine_type": "Surface"
  },
  {
    "id": "msha-0403108",
    "name": "RUBY MINE",
    "operator": "High Desert Mining LLC",
    "commodity": "Gold",
    "mineral_match": [
      "Silver"
    ],
    "state": "CA",
    "county": "Nevada",
    "lat": 39.509444,
    "lon": -120.848611,
    "employment": 2,
    "status": "Active",
    "mine_type": "Underground"
  },
  {
    "id": "msha-0403425",
    "name": "Washington Mine",
    "operator": "French Gulch (Nevada) Mining Corp",
    "commodity": "Gold",
    "mineral_match": [
      "Silver"
    ],
    "state": "CA",
    "county": "Shasta",
    "lat": 40.718056,
    "lon": -122.680833,
    "employment": 8,
    "status": "Active",
    "mine_type": "Underground"
  },
  {
    "id": "msha-0403698",
    "name": "Ellwood Pit",
    "operator": "Santa Barbara Sand & Top Soil",
    "commodity": "Sand, Industrial NEC",
    "mineral_match": [
      "Silicon"
    ],
    "state": "CA",
    "county": "Santa Barbara",
    "lat": 34.443611,
    "lon": -119.896667,
    "employment": 5,
    "status": "Active",
    "mine_type": "Surface"
  },
  {
    "id": "msha-0404201",
    "name": "Packway Portable",
    "operator": "Packway Materials Inc",
    "commodity": "Sand, Industrial NEC",
    "mineral_match": [
      "Silicon"
    ],
    "state": "CA",
    "county": "Shasta",
    "lat": 40.940278,
    "lon": -121.571944,
    "employment": 3,
    "status": "Active",
    "mine_type": "Surface"
  },
  {
    "id": "msha-0404263",
    "name": "Riverside Operation",
    "operator": "Riverside Milling Company, LLC",
    "commodity": "Silicon",
    "mineral_match": [
      "Silicon"
    ],
    "state": "CA",
    "county": "Riverside",
    "lat": 34.016944,
    "lon": -117.396111,
    "employment": 4,
    "status": "Active",
    "mine_type": "Facility"
  },
  {
    "id": "msha-0404468",
    "name": "Big Seam mine",
    "operator": "Eagle's Nest Mining LLC",
    "commodity": "Gold",
    "mineral_match": [
      "Silver"
    ],
    "state": "CA",
    "county": "Placer",
    "lat": 39.020278,
    "lon": -120.818056,
    "employment": 8,
    "status": "Active",
    "mine_type": "Underground"
  },
  {
    "id": "msha-0404614",
    "name": "Mesquite",
    "operator": "Western Mesquite Mines, Inc.",
    "commodity": "Gold",
    "mineral_match": [
      "Silver"
    ],
    "state": "CA",
    "county": "Imperial",
    "lat": 33.0175,
    "lon": -114.99,
    "employment": 277,
    "status": "Active",
    "mine_type": "Surface"
  },
  {
    "id": "msha-0404647",
    "name": "PLANT 25",
    "operator": "Don Chapin Company Inc",
    "commodity": "Construction Sand and Gravel",
    "mineral_match": [
      "Silicon"
    ],
    "state": "CA",
    "county": "San Benito",
    "lat": 36.893056,
    "lon": -121.419167,
    "employment": 6,
    "status": "Active",
    "mine_type": "Surface"
  },
  {
    "id": "msha-0404794",
    "name": "MT. GAINES MINE",
    "operator": "Mt Gaines Rock",
    "commodity": "Construction Sand and Gravel",
    "mineral_match": [
      "Silver"
    ],
    "state": "CA",
    "county": "Mariposa",
    "lat": 37.533056,
    "lon": -120.174444,
    "employment": 3,
    "status": "Active",
    "mine_type": "Surface"
  },
  {
    "id": "msha-0404918",
    "name": "Castle Mountain Mine",
    "operator": "Castle Mountain Venture",
    "commodity": "Gold",
    "mineral_match": [
      "Silver"
    ],
    "state": "CA",
    "county": "San Bernardino",
    "lat": 35.293333,
    "lon": -115.176389,
    "employment": 38,
    "status": "Active",
    "mine_type": "Surface"
  },
  {
    "id": "msha-0405319",
    "name": "Soledad Mountain Project",
    "operator": "Golden Queen Mining Company",
    "commodity": "Gold",
    "mineral_match": [
      "Silver"
    ],
    "state": "CA",
    "county": "Kern",
    "lat": 35.008889,
    "lon": -118.180833,
    "employment": 179,
    "status": "Active",
    "mine_type": "Surface"
  },
  {
    "id": "msha-0405514",
    "name": "Superior - Twin Oaks",
    "operator": "Superior Ready Mix Concrete L.P.",
    "commodity": "Crushed, Broken Stone NEC",
    "mineral_match": [
      "Silicon"
    ],
    "state": "CA",
    "county": "San Diego",
    "lat": 33.230833,
    "lon": -117.181111,
    "employment": 7,
    "status": "Active",
    "mine_type": "Surface"
  },
  {
    "id": "msha-0405574",
    "name": "EAGLE VALLEY",
    "operator": "PACIFIC STATES TRANSPORTATION",
    "commodity": "Sand, Industrial NEC",
    "mineral_match": [
      "Silicon"
    ],
    "state": "CA",
    "county": "Riverside",
    "lat": 33.826944,
    "lon": -117.505,
    "employment": 1,
    "status": "Active",
    "mine_type": "Surface"
  },
  {
    "id": "msha-0405703",
    "name": "Greenwood Aggregates",
    "operator": "Greenwood Aggregates Inc",
    "commodity": "Sand, Industrial NEC",
    "mineral_match": [
      "Silicon"
    ],
    "state": "CA",
    "county": "Mendocino",
    "lat": 39.125,
    "lon": -123.616389,
    "employment": 2,
    "status": "Intermittent",
    "mine_type": "Surface"
  },
  {
    "id": "msha-0405715",
    "name": "Portable Plant #2",
    "operator": "California Rock Crusher Corp",
    "commodity": "Sand, Industrial NEC",
    "mineral_match": [
      "Silicon"
    ],
    "state": "CA",
    "county": "San Joaquin",
    "lat": 36.798611,
    "lon": -121.333889,
    "employment": 4,
    "status": "Intermittent",
    "mine_type": "Surface"
  },
  {
    "id": "msha-0405779",
    "name": "Santa Fe Aggregates Portable",
    "operator": "Santa Fe Aggregates, Inc.",
    "commodity": "Sand, Industrial NEC",
    "mineral_match": [
      "Silicon"
    ],
    "state": "CA",
    "county": "Merced",
    "lat": 38.5725,
    "lon": -121.369444,
    "employment": 1,
    "status": "Intermittent",
    "mine_type": "Surface"
  },
  {
    "id": "msha-0405780",
    "name": "Roberti Ranch",
    "operator": "Folchi Logging & Construction Inc",
    "commodity": "Sand, Industrial NEC",
    "mineral_match": [
      "Silicon"
    ],
    "state": "CA",
    "county": "Plumas",
    "lat": 39.779167,
    "lon": -120.268611,
    "employment": 5,
    "status": "Intermittent",
    "mine_type": "Surface"
  },
  {
    "id": "msha-0405783",
    "name": "Vernalis Plant",
    "operator": "Granite Construction Company",
    "commodity": "Sand, Industrial NEC",
    "mineral_match": [
      "Silicon"
    ],
    "state": "CA",
    "county": "San Joaquin",
    "lat": 37.602778,
    "lon": -121.346389,
    "employment": 20,
    "status": "Active",
    "mine_type": "Surface"
  },
  {
    "id": "msha-0405791",
    "name": "Sheridan Quarry",
    "operator": "Stevens Creek Quarry, Inc",
    "commodity": "Sand, Industrial NEC",
    "mineral_match": [
      "Silicon"
    ],
    "state": "CA",
    "county": "Alameda",
    "lat": 37.5625,
    "lon": -121.905833,
    "employment": 3,
    "status": "Active",
    "mine_type": "Surface"
  },
  {
    "id": "msha-0405799",
    "name": "Sanger Aggregate Plant",
    "operator": "Martin Marietta Northern California Aggregates,LLC",
    "commodity": "Sand, Industrial NEC",
    "mineral_match": [
      "Silicon"
    ],
    "state": "CA",
    "county": "Fresno",
    "lat": 36.669167,
    "lon": -119.507222,
    "employment": 10,
    "status": "Active",
    "mine_type": "Surface"
  },
  {
    "id": "msha-0405846",
    "name": "Waverly",
    "operator": "San Joaquin County Aggregates",
    "commodity": "Sand, Industrial NEC",
    "mineral_match": [
      "Silicon"
    ],
    "state": "CA",
    "county": "San Joaquin",
    "lat": 38.051667,
    "lon": -120.943611,
    "employment": 4,
    "status": "Active",
    "mine_type": "Surface"
  },
  {
    "id": "msha-0405879",
    "name": "Sierra Silica Resources",
    "operator": "Industrial Silica Products, LLC",
    "commodity": "Sand, Industrial NEC",
    "mineral_match": [
      "Silicon"
    ],
    "state": "CA",
    "county": "Butte",
    "lat": 39.476389,
    "lon": -121.566389,
    "employment": 30,
    "status": "Active",
    "mine_type": "Surface"
  },
  {
    "id": "msha-0405891",
    "name": "Estrella Sand Pit",
    "operator": "Viborg Sand & Gravel, Inc.",
    "commodity": "Sand, Industrial NEC",
    "mineral_match": [
      "Silicon"
    ],
    "state": "CA",
    "county": "San Luis Obispo",
    "lat": 35.716389,
    "lon": -120.640556,
    "employment": 1,
    "status": "Intermittent",
    "mine_type": "Surface"
  },
  {
    "id": "msha-0405895",
    "name": "Warrior 1800/Cone Crusher FT200",
    "operator": "David Crye General Engineering Contractor",
    "commodity": "Sand, Industrial NEC",
    "mineral_match": [
      "Silicon"
    ],
    "state": "CA",
    "county": "San Luis Obispo",
    "lat": 35.535556,
    "lon": -121.056944,
    "employment": 3,
    "status": "Active",
    "mine_type": "Surface"
  },
  {
    "id": "msha-0405929",
    "name": "Cucamonga Creek Mine",
    "operator": "MRC Rock & Sand LLC",
    "commodity": "Sand, Industrial NEC",
    "mineral_match": [
      "Silicon"
    ],
    "state": "CA",
    "county": "San Bernardino",
    "lat": 34.146944,
    "lon": -117.639722,
    "employment": 4,
    "status": "Active",
    "mine_type": "Surface"
  },
  {
    "id": "msha-0405932",
    "name": "LYNX CAT QUARRY",
    "operator": "Lynx Cat  Mountain Quarry Operations, LLC",
    "commodity": "Sand, Industrial NEC",
    "mineral_match": [
      "Silicon"
    ],
    "state": "CA",
    "county": "San Bernardino",
    "lat": 34.983611,
    "lon": -117.244444,
    "employment": 16,
    "status": "Active",
    "mine_type": "Surface"
  },
  {
    "id": "msha-0405945",
    "name": "Latona Aggregates",
    "operator": "Tullis Inc.",
    "commodity": "Sand, Industrial NEC",
    "mineral_match": [
      "Silicon"
    ],
    "state": "CA",
    "county": "Shasta",
    "lat": 40.493333,
    "lon": -122.361111,
    "employment": 3,
    "status": "Active",
    "mine_type": "Surface"
  },
  {
    "id": "msha-0405946",
    "name": "Big Rock Creek Quarry",
    "operator": "Granite Construction Company",
    "commodity": "Sand, Industrial NEC",
    "mineral_match": [
      "Silicon"
    ],
    "state": "CA",
    "county": "Los Angeles",
    "lat": 34.513889,
    "lon": -117.855556,
    "employment": 5,
    "status": "Active",
    "mine_type": "Surface"
  },
  {
    "id": "msha-0405949",
    "name": "Humboldt Screener",
    "operator": "Humboldt County Department of Public Works",
    "commodity": "Sand, Industrial NEC",
    "mineral_match": [
      "Silicon"
    ],
    "state": "CA",
    "county": "Humboldt",
    "lat": 40.804444,
    "lon": -124.131667,
    "employment": 4,
    "status": "Intermittent",
    "mine_type": "Surface"
  },
  {
    "id": "msha-0405959",
    "name": "Fort Independence Quarry",
    "operator": "Grinding Rock Aggregates",
    "commodity": "Sand, Industrial NEC",
    "mineral_match": [
      "Silicon"
    ],
    "state": "CA",
    "county": "Inyo",
    "lat": 36.841667,
    "lon": -118.2375,
    "employment": 3,
    "status": "Active",
    "mine_type": "Surface"
  },
  {
    "id": "msha-0405971",
    "name": "Capital Rock LLC",
    "operator": "Capital Rock LLC",
    "commodity": "Graphite",
    "mineral_match": [
      "Graphite"
    ],
    "state": "CA",
    "county": "Placer",
    "lat": 39.023611,
    "lon": -121.346389,
    "employment": 15,
    "status": "Active",
    "mine_type": "Surface"
  },
  {
    "id": "msha-0405990",
    "name": "Blue Moon Underground Mine",
    "operator": "Small Mine Development",
    "commodity": "Zinc",
    "mineral_match": [
      "Zinc"
    ],
    "state": "CA",
    "county": "Mariposa",
    "lat": 37.566111,
    "lon": -120.255833,
    "employment": 5,
    "status": "Active",
    "mine_type": "Underground"
  },
  {
    "id": "msha-0500790",
    "name": "HENDERSON OPERATIONS",
    "operator": "Climax Molybdenum Company",
    "commodity": "Molybdenum",
    "mineral_match": [
      "Rhenium"
    ],
    "state": "CO",
    "county": "Clear Creek",
    "lat": 39.771389,
    "lon": -105.846111,
    "employment": 373,
    "status": "Active",
    "mine_type": "Underground"
  },
  {
    "id": "msha-0502256",
    "name": "Climax Mine",
    "operator": "Climax Molybdenum Company",
    "commodity": "Molybdenum",
    "mineral_match": [
      "Rhenium"
    ],
    "state": "CO",
    "county": "Lake",
    "lat": 39.369167,
    "lon": -106.184167,
    "employment": 315,
    "status": "Active",
    "mine_type": "Surface"
  },
  {
    "id": "msha-0503695",
    "name": "Cripple Creek and Victor Gold Mining Com",
    "operator": "Cripple Creek & Victor Gold Mining Company, LLC",
    "commodity": "Gold",
    "mineral_match": [
      "Silver"
    ],
    "state": "CO",
    "county": "Teller",
    "lat": 38.744722,
    "lon": -105.145278,
    "employment": 514,
    "status": "Active",
    "mine_type": "Surface"
  },
  {
    "id": "msha-0503973",
    "name": "Bullger Basin",
    "operator": "Eagle Peaks Mining LLC",
    "commodity": "Gold",
    "mineral_match": [
      "Silver"
    ],
    "state": "CO",
    "county": "Park",
    "lat": 39.266667,
    "lon": -106.117778,
    "employment": 5,
    "status": "Intermittent",
    "mine_type": "Surface"
  },
  {
    "id": "msha-0504594",
    "name": "HP 300 (Crusher 4)",
    "operator": "Elam Construction",
    "commodity": "Construction Sand and Gravel",
    "mineral_match": [
      "Silver"
    ],
    "state": "CO",
    "county": "Delta",
    "lat": 38.806389,
    "lon": -106.600278,
    "employment": 3,
    "status": "Intermittent",
    "mine_type": "Surface"
  },
  {
    "id": "msha-0504855",
    "name": "Willow Creek Mine",
    "operator": "Mt Elbert Mining Co LLC",
    "commodity": "Gold",
    "mineral_match": [
      "Silver"
    ],
    "state": "CO",
    "county": "Lake",
    "lat": 39.123333,
    "lon": -106.366944,
    "employment": 4,
    "status": "Intermittent",
    "mine_type": "Surface"
  },
  {
    "id": "msha-0504987",
    "name": "Alma Placer",
    "operator": "High Mountain Mining Company LLC",
    "commodity": "Gold",
    "mineral_match": [
      "Silver"
    ],
    "state": "CO",
    "county": "Park",
    "lat": 39.280833,
    "lon": -106.059444,
    "employment": 2,
    "status": "Intermittent",
    "mine_type": "Surface"
  },
  {
    "id": "msha-0504989",
    "name": "Hector Placer Mine",
    "operator": "IGWT Mining, Inc.",
    "commodity": "Gold",
    "mineral_match": [
      "Silver"
    ],
    "state": "CO",
    "county": "Park",
    "lat": 39.269722,
    "lon": -106.043056,
    "employment": 3,
    "status": "Intermittent",
    "mine_type": "Surface"
  },
  {
    "id": "msha-0505084",
    "name": "Destiny Pit",
    "operator": "Gold Tamers LLC",
    "commodity": "Gold",
    "mineral_match": [
      "Silver"
    ],
    "state": "CO",
    "county": "Park",
    "lat": 39.218611,
    "lon": -106.005278,
    "employment": 2,
    "status": "Intermittent",
    "mine_type": "Surface"
  },
  {
    "id": "msha-0505123",
    "name": "Box Creek Placer",
    "operator": "Titan Au, Inc.",
    "commodity": "Gold",
    "mineral_match": [
      "Silver"
    ],
    "state": "CO",
    "county": "Lake",
    "lat": 39.123333,
    "lon": -106.366944,
    "employment": 14,
    "status": "Intermittent",
    "mine_type": "Surface"
  },
  {
    "id": "msha-0505129",
    "name": "Bancroft Placer Mine",
    "operator": "Gregg Morrill",
    "commodity": "Gold",
    "mineral_match": [
      "Silver"
    ],
    "state": "CO",
    "county": "Montrose",
    "lat": 38.426944,
    "lon": -108.823611,
    "employment": 5,
    "status": "Intermittent",
    "mine_type": "Surface"
  },
  {
    "id": "msha-0505130",
    "name": "Snowstorm",
    "operator": "AC Concrete & Materials",
    "commodity": "Construction Sand and Gravel",
    "mineral_match": [
      "Silver"
    ],
    "state": "CO",
    "county": "Park",
    "lat": 39.248889,
    "lon": -106.033889,
    "employment": 2,
    "status": "Intermittent",
    "mine_type": "Surface"
  },
  {
    "id": "msha-0505159",
    "name": "Keenesburg #2",
    "operator": "Colorado Sand Company",
    "commodity": "Sand, Industrial NEC",
    "mineral_match": [
      "Silicon"
    ],
    "state": "CO",
    "county": "Weld",
    "lat": 40.101308,
    "lon": -104.492368,
    "employment": 85,
    "status": "Active",
    "mine_type": "Surface"
  },
  {
    "id": "msha-0505176",
    "name": "Track Jaw Crusher PS330",
    "operator": "Crossfire Aggregate Services, LLC",
    "commodity": "Quartz, Ground",
    "mineral_match": [
      "Silicon"
    ],
    "state": "CO",
    "county": "Archuleta",
    "lat": 37.080278,
    "lon": -107.606111,
    "employment": 3,
    "status": "Intermittent",
    "mine_type": "Surface"
  },
  {
    "id": "msha-0505178",
    "name": "MW Sorter LLC (London Mine)",
    "operator": "MW Sorter LLC",
    "commodity": "Gold",
    "mineral_match": [
      "Silver"
    ],
    "state": "CO",
    "county": "Park",
    "lat": 39.272778,
    "lon": -108.145556,
    "employment": 4,
    "status": "Intermittent",
    "mine_type": "Facility"
  },
  {
    "id": "msha-0505179",
    "name": "Lyons Pit",
    "operator": "Lyons Pit",
    "commodity": "Phosphate",
    "mineral_match": [
      "Phosphate"
    ],
    "state": "CO",
    "county": "Custer",
    "lat": 38.376111,
    "lon": -105.583611,
    "employment": 2,
    "status": "Intermittent",
    "mine_type": "Surface"
  },
  {
    "id": "msha-0700100",
    "name": "Wilmington Plant",
    "operator": "Vibrantz Minerals LLC",
    "commodity": "Manganese",
    "mineral_match": [
      "Manganese"
    ],
    "state": "DE",
    "county": "New Castle",
    "lat": 39.711944,
    "lon": -75.534167,
    "employment": 27,
    "status": "Active",
    "mine_type": "Facility"
  },
  {
    "id": "msha-0700110",
    "name": "Porter Sand & Gravel, Inc.",
    "operator": "Porter Sand & Gravel, Inc.",
    "commodity": "Sand, Industrial NEC",
    "mineral_match": [
      "Silicon"
    ],
    "state": "DE",
    "county": "Kent",
    "lat": 38.961667,
    "lon": -75.514167,
    "employment": 2,
    "status": "Active",
    "mine_type": "Surface"
  },
  {
    "id": "msha-0700112",
    "name": "Wolman",
    "operator": "Vulcan Construction Materials LLC",
    "commodity": "Sand, Industrial NEC",
    "mineral_match": [
      "Silicon"
    ],
    "state": "DE",
    "county": "Sussex",
    "lat": 38.613333,
    "lon": -75.4675,
    "employment": 10,
    "status": "Active",
    "mine_type": "Surface"
  },
  {
    "id": "msha-0800222",
    "name": "Manko Co Sec 5 Mine/Phos",
    "operator": "Manko Company",
    "commodity": "Phosphate",
    "mineral_match": [
      "Phosphate"
    ],
    "state": "FL",
    "county": "Citrus",
    "lat": 28.944167,
    "lon": -82.403056,
    "employment": 5,
    "status": "Active",
    "mine_type": "Surface"
  },
  {
    "id": "msha-0800225",
    "name": "The Chemours Company FC LLC",
    "operator": "The Chemours Company FC LLC",
    "commodity": "Titanium",
    "mineral_match": [
      "Hafnium",
      "Titanium",
      "Zirconium"
    ],
    "state": "FL",
    "county": "Clay",
    "lat": 29.938333,
    "lon": -82.069167,
    "employment": 91,
    "status": "Active",
    "mine_type": "Surface"
  },
  {
    "id": "msha-0800298",
    "name": "Lynne Mine",
    "operator": "Edgar Minerals, Inc.",
    "commodity": "Sand, Industrial NEC",
    "mineral_match": [
      "Silicon"
    ],
    "state": "FL",
    "county": "Marion",
    "lat": 29.205278,
    "lon": -81.900278,
    "employment": 3,
    "status": "Active",
    "mine_type": "Surface"
  },
  {
    "id": "msha-0800434",
    "name": "Keuka Sand Plant",
    "operator": "Florida Rock Industries Inc",
    "commodity": "Sand, Industrial NEC",
    "mineral_match": [
      "Silicon"
    ],
    "state": "FL",
    "county": "Putnam",
    "lat": 29.617222,
    "lon": -81.913056,
    "employment": 9,
    "status": "Active",
    "mine_type": "Surface"
  },
  {
    "id": "msha-0800798",
    "name": "Swift Creek Mine",
    "operator": "White Springs Ag Chems Inc dba Nutrien",
    "commodity": "Phosphate",
    "mineral_match": [
      "Phosphate"
    ],
    "state": "FL",
    "county": "Hamilton",
    "lat": 30.483056,
    "lon": -83.089167,
    "employment": 247,
    "status": "Active",
    "mine_type": "Surface"
  },
  {
    "id": "msha-0800903",
    "name": "South Pasture Mine",
    "operator": "Mosaic Fertilizer, LLC",
    "commodity": "Phosphate",
    "mineral_match": [
      "Phosphate"
    ],
    "state": "FL",
    "county": "Hardee",
    "lat": 27.644722,
    "lon": -81.948611,
    "employment": 5,
    "status": "Active",
    "mine_type": "Surface"
  },
  {
    "id": "msha-0800981",
    "name": "Wingate Creek Mine",
    "operator": "Mosaic Fertilizer, LLC",
    "commodity": "Phosphate",
    "mineral_match": [
      "Phosphate"
    ],
    "state": "FL",
    "county": "Manatee",
    "lat": 27.4975,
    "lon": -82.124167,
    "employment": 126,
    "status": "Active",
    "mine_type": "Surface"
  },
  {
    "id": "msha-0801117",
    "name": "Four Corners",
    "operator": "Mosaic Fertilizer, LLC",
    "commodity": "Phosphate",
    "mineral_match": [
      "Phosphate"
    ],
    "state": "FL",
    "county": "Polk",
    "lat": 27.763056,
    "lon": -81.971667,
    "employment": 500,
    "status": "Active",
    "mine_type": "Surface"
  },
  {
    "id": "msha-0801183",
    "name": "South Fort Meade Mine",
    "operator": "Mosaic Fertilizer, LLC",
    "commodity": "Phosphate",
    "mineral_match": [
      "Phosphate"
    ],
    "state": "FL",
    "county": "Polk",
    "lat": 27.647778,
    "lon": -81.756389,
    "employment": 216,
    "status": "Active",
    "mine_type": "Surface"
  },
  {
    "id": "msha-0801404",
    "name": "Okahumpka",
    "operator": "Universal Aggregate Solutions, Inc.",
    "commodity": "Sand, Industrial NEC",
    "mineral_match": [
      "Silicon"
    ],
    "state": "FL",
    "county": "Lake",
    "lat": 28.738333,
    "lon": -81.889167,
    "employment": 8,
    "status": "Active",
    "mine_type": "Surface"
  },
  {
    "id": "msha-0801416",
    "name": "County Line Mine",
    "operator": "K&M Pasco 130 Holdings LLC",
    "commodity": "Sand, Industrial NEC",
    "mineral_match": [
      "Silicon"
    ],
    "state": "FL",
    "county": "Pasco",
    "lat": 28.433894,
    "lon": -82.569081,
    "employment": 11,
    "status": "Active",
    "mine_type": "Surface"
  },
  {
    "id": "msha-0801461",
    "name": "G2C Sand Mine",
    "operator": "Rodney H Greenway Inc.",
    "commodity": "Sand, Industrial NEC",
    "mineral_match": [
      "Silicon"
    ],
    "state": "FL",
    "county": "Okaloosa",
    "lat": 30.701214,
    "lon": -86.514549,
    "employment": 3,
    "status": "Active",
    "mine_type": "Surface"
  },
  {
    "id": "msha-0801464",
    "name": "Shortleaf Borrow Pit",
    "operator": "IRONHORSE SERVICES, LLC",
    "commodity": "Sand, Industrial NEC",
    "mineral_match": [
      "Silicon"
    ],
    "state": "FL",
    "county": "Escambia",
    "lat": 30.816389,
    "lon": -87.521944,
    "employment": 2,
    "status": "Active",
    "mine_type": "Surface"
  },
  {
    "id": "msha-0801465",
    "name": "SH SAND INC",
    "operator": "SH SAND INC",
    "commodity": "Sand, Industrial NEC",
    "mineral_match": [
      "Silicon"
    ],
    "state": "FL",
    "county": "Okaloosa",
    "lat": 30.695,
    "lon": -86.5075,
    "employment": 2,
    "status": "Intermittent",
    "mine_type": "Surface"
  },
  {
    "id": "msha-0801466",
    "name": "USA Calcium",
    "operator": "USA Calcium LLC",
    "commodity": "Sand, Industrial NEC",
    "mineral_match": [
      "Silicon"
    ],
    "state": "FL",
    "county": "Jackson",
    "lat": 30.793333,
    "lon": -85.260556,
    "employment": 4,
    "status": "Active",
    "mine_type": "Surface"
  },
  {
    "id": "msha-0900245",
    "name": "New Riverside Ochre Company Incorporated",
    "operator": "New Riverside Ochre Company Incorporated",
    "commodity": "Barite",
    "mineral_match": [
      "Barite"
    ],
    "state": "GA",
    "county": "Bartow",
    "lat": 34.159167,
    "lon": -84.769722,
    "employment": 29,
    "status": "Active",
    "mine_type": "Surface"
  },
  {
    "id": "msha-0900265",
    "name": "Junction City Sand",
    "operator": "SRM Materials, LLC",
    "commodity": "Sand, Industrial NEC",
    "mineral_match": [
      "Silicon"
    ],
    "state": "GA",
    "county": "Talbot",
    "lat": 32.555555,
    "lon": -84.435833,
    "employment": 15,
    "status": "Active",
    "mine_type": "Surface"
  },
  {
    "id": "msha-0901126",
    "name": "Morgan County Quarry",
    "operator": "Martin Marietta Materials, Inc.",
    "commodity": "Crushed, Broken Quartzite",
    "mineral_match": [
      "Silicon"
    ],
    "state": "GA",
    "county": "Morgan",
    "lat": 33.561111,
    "lon": -83.361944,
    "employment": 11,
    "status": "Active",
    "mine_type": "Surface"
  },
  {
    "id": "msha-0901230",
    "name": "Mission Mine",
    "operator": "The Chemours Company FC LLC",
    "commodity": "Sand, Industrial NEC",
    "mineral_match": [
      "Silicon"
    ],
    "state": "GA",
    "county": "Brantley",
    "lat": 31.071504,
    "lon": -81.963672,
    "employment": 45,
    "status": "Active",
    "mine_type": "Surface"
  },
  {
    "id": "msha-0901232",
    "name": "Millen Plant",
    "operator": "US Silica Company",
    "commodity": "Kaolin and Ball Clay",
    "mineral_match": [
      "Silicon"
    ],
    "state": "GA",
    "county": "Jenkins",
    "lat": 32.755556,
    "lon": -81.899444,
    "employment": 28,
    "status": "Active",
    "mine_type": "Facility"
  },
  {
    "id": "msha-0901236",
    "name": "Offerman Mineral Sand Plant",
    "operator": "The Chemours Company FC LLC",
    "commodity": "Sand, Industrial NEC",
    "mineral_match": [
      "Silicon"
    ],
    "state": "GA",
    "county": "Pierce",
    "lat": 31.417988,
    "lon": -82.099411,
    "employment": 10,
    "status": "Active",
    "mine_type": "Facility"
  },
  {
    "id": "msha-0901257",
    "name": "Royal Vindicator Mine",
    "operator": "Chester Holdings USA, Inc.",
    "commodity": "Gold",
    "mineral_match": [
      "Silver"
    ],
    "state": "GA",
    "county": "Haralson",
    "lat": 33.714167,
    "lon": -85.273889,
    "employment": 6,
    "status": "Active",
    "mine_type": "Surface"
  },
  {
    "id": "msha-1000082",
    "name": "Galena",
    "operator": "U.S. Silver-Idaho, Inc.",
    "commodity": "Silver",
    "mineral_match": [
      "Lead",
      "Silver",
      "Zinc"
    ],
    "state": "ID",
    "county": "Shoshone",
    "lat": 47.485,
    "lon": -115.961389,
    "employment": 248,
    "status": "Active",
    "mine_type": "Underground"
  },
  {
    "id": "msha-1000083",
    "name": "BUNKER HILL MINE",
    "operator": "Silver Valley Metals Corp.",
    "commodity": "Lead",
    "mineral_match": [
      "Lead",
      "Silver",
      "Zinc"
    ],
    "state": "ID",
    "county": "Shoshone",
    "lat": 47.5375,
    "lon": -116.136944,
    "employment": 23,
    "status": "Active",
    "mine_type": "Underground"
  },
  {
    "id": "msha-1000088",
    "name": "Lucky Friday",
    "operator": "Hecla Limited",
    "commodity": "Silver",
    "mineral_match": [
      "Lead",
      "Silver",
      "Zinc"
    ],
    "state": "ID",
    "county": "Shoshone",
    "lat": 47.470278,
    "lon": -115.801944,
    "employment": 372,
    "status": "Active",
    "mine_type": "Underground"
  },
  {
    "id": "msha-1000414",
    "name": "Golden Chest Mine",
    "operator": "Idaho Strategic Resources Inc",
    "commodity": "Gold",
    "mineral_match": [
      "Silver"
    ],
    "state": "ID",
    "county": "Shoshone",
    "lat": 47.620278,
    "lon": -115.8175,
    "employment": 37,
    "status": "Active",
    "mine_type": "Underground"
  },
  {
    "id": "msha-1000531",
    "name": "Thompson Creek Mine",
    "operator": "Thompson Creek Mining Company",
    "commodity": "Molybdenum",
    "mineral_match": [
      "Rhenium"
    ],
    "state": "ID",
    "county": "Custer",
    "lat": 44.259167,
    "lon": -114.399722,
    "employment": 41,
    "status": "Active",
    "mine_type": "Surface"
  },
  {
    "id": "msha-1001590",
    "name": "Smoky Canyon Mine",
    "operator": "J R Simplot Company",
    "commodity": "Phosphate",
    "mineral_match": [
      "Phosphate"
    ],
    "state": "ID",
    "county": "Caribou",
    "lat": 42.762778,
    "lon": -111.071389,
    "employment": 235,
    "status": "Active",
    "mine_type": "Surface"
  },
  {
    "id": "msha-1001735",
    "name": "Bayer Quartzite Quarry",
    "operator": "Ruveon LLC",
    "commodity": "Crushed, Broken Quartzite",
    "mineral_match": [
      "Silicon"
    ],
    "state": "ID",
    "county": "Caribou",
    "lat": 42.7025,
    "lon": -111.619167,
    "employment": 10,
    "status": "Intermittent",
    "mine_type": "Surface"
  },
  {
    "id": "msha-1001798",
    "name": "Rock Garden",
    "operator": "Oakley Mountain Corp",
    "commodity": "Dimension Quartzite",
    "mineral_match": [
      "Silicon"
    ],
    "state": "ID",
    "county": "Cassia",
    "lat": 42.243333,
    "lon": -113.881944,
    "employment": 23,
    "status": "Intermittent",
    "mine_type": "Surface"
  },
  {
    "id": "msha-1001840",
    "name": "Plant 3",
    "operator": "Kloepfer Inc",
    "commodity": "Sand, Industrial NEC",
    "mineral_match": [
      "Silicon"
    ],
    "state": "ID",
    "county": "Minidoka",
    "lat": 42.605,
    "lon": -113.777222,
    "employment": 5,
    "status": "Intermittent",
    "mine_type": "Surface"
  },
  {
    "id": "msha-1001854",
    "name": "BFB & Ballard Mines",
    "operator": "Ruveon LLC",
    "commodity": "Phosphate",
    "mineral_match": [
      "Phosphate"
    ],
    "state": "ID",
    "county": "Caribou",
    "lat": 42.826667,
    "lon": -111.505556,
    "employment": 19,
    "status": "Active",
    "mine_type": "Surface"
  },
  {
    "id": "msha-1001913",
    "name": "New Jersey Mill",
    "operator": "Idaho Strategic Resources, Inc.",
    "commodity": "Gold",
    "mineral_match": [
      "Silver"
    ],
    "state": "ID",
    "county": "Shoshone",
    "lat": 47.626389,
    "lon": -115.851111,
    "employment": 9,
    "status": "Active",
    "mine_type": "Facility"
  },
  {
    "id": "msha-1001938",
    "name": "Husky 1, North Dry Ridge",
    "operator": "ITAFOS Conda LLC",
    "commodity": "Phosphate",
    "mineral_match": [
      "Phosphate"
    ],
    "state": "ID",
    "county": "Caribou",
    "lat": 42.654444,
    "lon": -111.604722,
    "employment": 2,
    "status": "Intermittent",
    "mine_type": "Surface"
  },
  {
    "id": "msha-1002155",
    "name": "Golden Eagle",
    "operator": "Greyhound Mine & Milling, Inc.",
    "commodity": "Gold",
    "mineral_match": [
      "Silver"
    ],
    "state": "ID",
    "county": "Ada",
    "lat": 43.481667,
    "lon": -115.998056,
    "employment": 6,
    "status": "Active",
    "mine_type": "Underground"
  },
  {
    "id": "msha-1002184",
    "name": "Thornton",
    "operator": "Walters Ready Mix, Inc.",
    "commodity": "Sand, Industrial NEC",
    "mineral_match": [
      "Silicon"
    ],
    "state": "ID",
    "county": "Madison",
    "lat": 43.763056,
    "lon": -111.841944,
    "employment": 2,
    "status": "Intermittent",
    "mine_type": "Surface"
  },
  {
    "id": "msha-1002187",
    "name": "Plant 4",
    "operator": "Mickelsen Construction, Inc.",
    "commodity": "Sand, Industrial NEC",
    "mineral_match": [
      "Silicon"
    ],
    "state": "ID",
    "county": "Bonneville",
    "lat": 43.2075,
    "lon": -112.405556,
    "employment": 2,
    "status": "Intermittent",
    "mine_type": "Surface"
  },
  {
    "id": "msha-1002200",
    "name": "Shelley Pit",
    "operator": "Valley Ready Mix, Inc.",
    "commodity": "Sand, Industrial NEC",
    "mineral_match": [
      "Silicon"
    ],
    "state": "ID",
    "county": "Bonneville",
    "lat": 43.41,
    "lon": -112.038333,
    "employment": 2,
    "status": "Intermittent",
    "mine_type": "Surface"
  },
  {
    "id": "msha-1002202",
    "name": "Owyhee Noble Mill",
    "operator": "Owyhee Noble Metals LLC",
    "commodity": "Gold",
    "mineral_match": [
      "Silver"
    ],
    "state": "ID",
    "county": "Owyhee",
    "lat": 43.078889,
    "lon": -116.615278,
    "employment": 5,
    "status": "Intermittent",
    "mine_type": "Surface"
  },
  {
    "id": "msha-1002303",
    "name": "Orogrande Processing Facility",
    "operator": "Endomines Idaho, LLC",
    "commodity": "Gold",
    "mineral_match": [
      "Silver"
    ],
    "state": "ID",
    "county": "Idaho",
    "lat": 46.036667,
    "lon": -115.338611,
    "employment": 3,
    "status": "Intermittent",
    "mine_type": "Facility"
  },
  {
    "id": "msha-1101013",
    "name": "Ottawa Plant",
    "operator": "U. S. Silica Company",
    "commodity": "Silicon",
    "mineral_match": [
      "Silicon"
    ],
    "state": "IL",
    "county": "La Salle",
    "lat": 41.346667,
    "lon": -88.865,
    "employment": 124,
    "status": "Active",
    "mine_type": "Surface"
  },
  {
    "id": "msha-1101016",
    "name": "MANLEY BROS.",
    "operator": "Manley Brothers Of Indiana Inc",
    "commodity": "Sand, Industrial NEC",
    "mineral_match": [
      "Silicon"
    ],
    "state": "IL",
    "county": "La Salle",
    "lat": 41.465833,
    "lon": -89.079444,
    "employment": 23,
    "status": "Active",
    "mine_type": "Surface"
  },
  {
    "id": "msha-1101023",
    "name": "Hastie Mine",
    "operator": "Hastie Mining",
    "commodity": "Crushed, Broken Limestone NEC",
    "mineral_match": [
      "Fluorspar"
    ],
    "state": "IL",
    "county": "Hardin",
    "lat": 37.469167,
    "lon": -88.165278,
    "employment": 34,
    "status": "Active",
    "mine_type": "Surface"
  },
  {
    "id": "msha-1101212",
    "name": "MARENGO MATERIALS",
    "operator": "MARENGO MATERIALS LLC",
    "commodity": "Sand, Industrial NEC",
    "mineral_match": [
      "Silicon"
    ],
    "state": "IL",
    "county": "Mchenry",
    "lat": 42.238611,
    "lon": -88.610556,
    "employment": 3,
    "status": "Intermittent",
    "mine_type": "Surface"
  },
  {
    "id": "msha-1101578",
    "name": "Wedron Plant",
    "operator": "Wedron Silica LLC",
    "commodity": "Sand, Industrial NEC",
    "mineral_match": [
      "Silicon"
    ],
    "state": "IL",
    "county": "La Salle",
    "lat": 41.436944,
    "lon": -88.774444,
    "employment": 140,
    "status": "Active",
    "mine_type": "Surface"
  },
  {
    "id": "msha-1101580",
    "name": "Troy Grove Plant",
    "operator": "Covia Solutions LLC",
    "commodity": "Sand, Industrial NEC",
    "mineral_match": [
      "Silicon"
    ],
    "state": "IL",
    "county": "La Salle",
    "lat": 41.465,
    "lon": -89.085,
    "employment": 4,
    "status": "Active",
    "mine_type": "Surface"
  },
  {
    "id": "msha-1101981",
    "name": "Elco Plant",
    "operator": "Covia Specialty Minerals, Inc.",
    "commodity": "Quartz, Ground",
    "mineral_match": [
      "Silicon"
    ],
    "state": "IL",
    "county": "Alexander",
    "lat": 37.303056,
    "lon": -89.262778,
    "employment": 34,
    "status": "Active",
    "mine_type": "Facility"
  },
  {
    "id": "msha-1102998",
    "name": "Rosiclare Facility Hastie Mining",
    "operator": "Hastie Mining & Trucking",
    "commodity": "Fluorspar",
    "mineral_match": [
      "Fluorspar"
    ],
    "state": "IL",
    "county": "Hardin",
    "lat": 37.428333,
    "lon": -88.343333,
    "employment": 10,
    "status": "Active",
    "mine_type": "Facility"
  },
  {
    "id": "msha-1103172",
    "name": "Dimension Stone/Portable Block Crew",
    "operator": "Fischer Excavating Inc",
    "commodity": "Dimension Quartzite",
    "mineral_match": [
      "Silicon"
    ],
    "state": "IL",
    "county": "Carroll",
    "lat": 42.156389,
    "lon": -89.823889,
    "employment": 2,
    "status": "Intermittent",
    "mine_type": "Surface"
  },
  {
    "id": "msha-1103253",
    "name": "Northern White Sand",
    "operator": "Northern White Sand LLC",
    "commodity": "Sand, Industrial NEC",
    "mineral_match": [
      "Silicon"
    ],
    "state": "IL",
    "county": "La Salle",
    "lat": 41.344167,
    "lon": -88.961667,
    "employment": 30,
    "status": "Active",
    "mine_type": "Surface"
  },
  {
    "id": "msha-1103292",
    "name": "HASTIE MINING AND TRUCKING",
    "operator": "GARY GRIFFITH DBA-GRIFFITH MINING",
    "commodity": "Fluorspar",
    "mineral_match": [
      "Fluorspar"
    ],
    "state": "IL",
    "county": "Hardin",
    "lat": 37.469167,
    "lon": -88.165278,
    "employment": 2,
    "status": "Intermittent",
    "mine_type": "Surface"
  },
  {
    "id": "msha-1103295",
    "name": "Moline Road",
    "operator": "Alliance Materials, Inc.",
    "commodity": "Sand, Industrial NEC",
    "mineral_match": [
      "Silicon"
    ],
    "state": "IL",
    "county": "Whiteside",
    "lat": 41.757222,
    "lon": -89.796111,
    "employment": 1,
    "status": "Intermittent",
    "mine_type": "Surface"
  },
  {
    "id": "msha-1103299",
    "name": "Carlyle Sand and Gravel - South",
    "operator": "Carlyle Sand and Gravel-A Ltd",
    "commodity": "Sand, Industrial NEC",
    "mineral_match": [
      "Silicon"
    ],
    "state": "IL",
    "county": "Clinton",
    "lat": 38.639722,
    "lon": -89.338333,
    "employment": 2,
    "status": "Intermittent",
    "mine_type": "Surface"
  },
  {
    "id": "msha-1202493",
    "name": "Riverside Aggregates & Materials, Inc.",
    "operator": "Riverside Aggregates & Materials, Inc.",
    "commodity": "Sand, Industrial NEC",
    "mineral_match": [
      "Silicon"
    ],
    "state": "IN",
    "county": "Marion",
    "lat": 39.640833,
    "lon": -86.232778,
    "employment": 6,
    "status": "Active",
    "mine_type": "Surface"
  },
  {
    "id": "msha-1202496",
    "name": "IMI Logansport Sand & Gravel",
    "operator": "IMI Aggregates LLC.",
    "commodity": "Sand, Industrial NEC",
    "mineral_match": [
      "Silicon"
    ],
    "state": "IN",
    "county": "Cass",
    "lat": 40.671097,
    "lon": -86.247134,
    "employment": 3,
    "status": "Intermittent",
    "mine_type": "Surface"
  },
  {
    "id": "msha-1202507",
    "name": "CIMBAR-MV",
    "operator": "CIMBAR Performance Minerals",
    "commodity": "Talc",
    "mineral_match": [
      "Barite"
    ],
    "state": "IN",
    "county": "Posey",
    "lat": 37.9275,
    "lon": -87.875,
    "employment": 34,
    "status": "Active",
    "mine_type": "Surface"
  },
  {
    "id": "msha-1302297",
    "name": "Pattison Company, LLC",
    "operator": "Pattison Company, LLC",
    "commodity": "Sand, Industrial NEC",
    "mineral_match": [
      "Silicon"
    ],
    "state": "IA",
    "county": "Clayton",
    "lat": 42.879722,
    "lon": -91.119722,
    "employment": 139,
    "status": "Active",
    "mine_type": "Underground"
  },
  {
    "id": "msha-1302429",
    "name": "PORTABLE GRIZZLY",
    "operator": "C J Moyna & Sons LLC.",
    "commodity": "Sand, Industrial NEC",
    "mineral_match": [
      "Silicon"
    ],
    "state": "IA",
    "county": "Clayton",
    "lat": 42.871944,
    "lon": -91.382778,
    "employment": 2,
    "status": "Intermittent",
    "mine_type": "Surface"
  },
  {
    "id": "msha-1302452",
    "name": "Stripping Crew",
    "operator": "River Products Company Inc",
    "commodity": "Sand, Industrial NEC",
    "mineral_match": [
      "Silicon"
    ],
    "state": "IA",
    "county": "Johnson",
    "lat": 41.682778,
    "lon": -91.618056,
    "employment": 3,
    "status": "Active",
    "mine_type": "Surface"
  },
  {
    "id": "msha-1302480",
    "name": "DeLoss Pit",
    "operator": "BD Construction Services LLC",
    "commodity": "Sand, Industrial NEC",
    "mineral_match": [
      "Silicon"
    ],
    "state": "IA",
    "county": "Clay",
    "lat": 43.053333,
    "lon": -94.9925,
    "employment": 1,
    "status": "Intermittent",
    "mine_type": "Surface"
  },
  {
    "id": "msha-1400868",
    "name": "MICRO-LITE LLC",
    "operator": "Micro-Lite, LLC",
    "commodity": "Potash",
    "mineral_match": [
      "Boron",
      "Potash"
    ],
    "state": "KS",
    "county": "Wilson",
    "lat": 37.708056,
    "lon": -95.696389,
    "employment": 9,
    "status": "Active",
    "mine_type": "Facility"
  },
  {
    "id": "msha-1401754",
    "name": "COYVILLE PIT",
    "operator": "Dunn's Material Handling LLC",
    "commodity": "Sand, Industrial NEC",
    "mineral_match": [
      "Silicon"
    ],
    "state": "KS",
    "county": "Wilson",
    "lat": 37.498611,
    "lon": -95.906944,
    "employment": 2,
    "status": "Active",
    "mine_type": "Surface"
  },
  {
    "id": "msha-1401806",
    "name": "Huber Sand Pit #5",
    "operator": "Huber Sand Inc",
    "commodity": "Sand, Industrial NEC",
    "mineral_match": [
      "Silicon"
    ],
    "state": "KS",
    "county": "Finney",
    "lat": 37.943611,
    "lon": -100.807778,
    "employment": 6,
    "status": "Active",
    "mine_type": "Surface"
  },
  {
    "id": "msha-1401836",
    "name": "Pakkebier Rock Quarry",
    "operator": "AM Gravel LLC",
    "commodity": "Crushed, Broken Quartzite",
    "mineral_match": [
      "Silicon"
    ],
    "state": "KS",
    "county": "Graham",
    "lat": 39.3675,
    "lon": -99.845833,
    "employment": 3,
    "status": "Active",
    "mine_type": "Surface"
  },
  {
    "id": "msha-1500149",
    "name": "L R Chapman Inc",
    "operator": "L R Chapman Inc",
    "commodity": "Sand, Common",
    "mineral_match": [
      "Silicon"
    ],
    "state": "KY",
    "county": "Hancock",
    "lat": 37.101389,
    "lon": -86.988611,
    "employment": 8,
    "status": "Active",
    "mine_type": "Surface"
  },
  {
    "id": "msha-1516865",
    "name": "Louisville Yard",
    "operator": "Nugent Sand Company",
    "commodity": "Sand, Industrial NEC",
    "mineral_match": [
      "Silicon"
    ],
    "state": "KY",
    "county": "Jefferson",
    "lat": 38.2675,
    "lon": -85.717222,
    "employment": 41,
    "status": "Active",
    "mine_type": "Facility"
  },
  {
    "id": "msha-1519209",
    "name": "Klondike II",
    "operator": "Hastie Mining",
    "commodity": "Fluorspar",
    "mineral_match": [
      "Fluorspar"
    ],
    "state": "KY",
    "county": "Livingston",
    "lat": 37.2225,
    "lon": -88.318611,
    "employment": 1,
    "status": "Active",
    "mine_type": "Surface"
  },
  {
    "id": "msha-1600352",
    "name": "Gramercy Operation",
    "operator": "Atalco Gramercy LLC",
    "commodity": "Alumina",
    "mineral_match": [
      "Aluminum"
    ],
    "state": "LA",
    "county": "St James",
    "lat": 30.06,
    "lon": -90.659444,
    "employment": 383,
    "status": "Active",
    "mine_type": "Facility"
  },
  {
    "id": "msha-1600825",
    "name": "AMELIA BARITE PLANT",
    "operator": "M-I L L C",
    "commodity": "Barite",
    "mineral_match": [
      "Barite"
    ],
    "state": "LA",
    "county": "Assumption",
    "lat": 29.6575,
    "lon": -91.117778,
    "employment": 16,
    "status": "Active",
    "mine_type": "Facility"
  },
  {
    "id": "msha-1601032",
    "name": "Lake Charles Grinding Plant",
    "operator": "Halliburton Energy Services, Inc.",
    "commodity": "Barite",
    "mineral_match": [
      "Barite"
    ],
    "state": "LA",
    "county": "Calcasieu",
    "lat": 30.197778,
    "lon": -93.304444,
    "employment": 25,
    "status": "Active",
    "mine_type": "Facility"
  },
  {
    "id": "msha-1601302",
    "name": "New Iberia Plant",
    "operator": "Cimbar Resources, Inc",
    "commodity": "Barite",
    "mineral_match": [
      "Barite"
    ],
    "state": "LA",
    "county": "Iberia",
    "lat": 29.945556,
    "lon": -91.836389,
    "employment": 22,
    "status": "Active",
    "mine_type": "Facility"
  },
  {
    "id": "msha-1601357",
    "name": "Baramin US, LLC",
    "operator": "Valence Drilling Fluids Holdings, LLC",
    "commodity": "Barite",
    "mineral_match": [
      "Barite"
    ],
    "state": "LA",
    "county": "St Mary",
    "lat": 29.692222,
    "lon": -91.208333,
    "employment": 4,
    "status": "Active",
    "mine_type": "Facility"
  },
  {
    "id": "msha-1601504",
    "name": "Larose Grinding Plant",
    "operator": "Halliburton Energy Services Inc",
    "commodity": "Barite",
    "mineral_match": [
      "Barite"
    ],
    "state": "LA",
    "county": "Lafourche",
    "lat": 29.568611,
    "lon": -90.367222,
    "employment": 9,
    "status": "Active",
    "mine_type": "Facility"
  },
  {
    "id": "msha-1601525",
    "name": "U.S. Sports Field Sand- Kentwood Plant",
    "operator": "U.S. Sports Field Sand, LLC",
    "commodity": "Sand, Industrial NEC",
    "mineral_match": [
      "Silicon"
    ],
    "state": "LA",
    "county": "Tangipahoa",
    "lat": 30.916667,
    "lon": -90.5,
    "employment": 3,
    "status": "Active",
    "mine_type": "Facility"
  },
  {
    "id": "msha-1601575",
    "name": "Cedar Bluff",
    "operator": "Sierra Frac Sand, LLC",
    "commodity": "Sand, Industrial NEC",
    "mineral_match": [
      "Silicon"
    ],
    "state": "LA",
    "county": "Bossier",
    "lat": 32.805278,
    "lon": -93.775278,
    "employment": 46,
    "status": "Active",
    "mine_type": "Surface"
  },
  {
    "id": "msha-1700939",
    "name": "Madawaska Plant",
    "operator": "Trombley Redi-Mix",
    "commodity": "Sand, Industrial NEC",
    "mineral_match": [
      "Silicon"
    ],
    "state": "ME",
    "county": "Aroostook",
    "lat": 47.328611,
    "lon": -68.38,
    "employment": 2,
    "status": "Intermittent",
    "mine_type": "Surface"
  },
  {
    "id": "msha-1800787",
    "name": "Merrick Sand & Gravel",
    "operator": "Merrick Sand & Gravel",
    "commodity": "Sand, Industrial NEC",
    "mineral_match": [
      "Silicon"
    ],
    "state": "MD",
    "county": "Queen Annes",
    "lat": 39.113056,
    "lon": -75.863611,
    "employment": 5,
    "status": "Active",
    "mine_type": "Surface"
  },
  {
    "id": "msha-1800823",
    "name": "Chesapeake Minerals",
    "operator": "York Building Products",
    "commodity": "Quartz, Ground",
    "mineral_match": [
      "Silicon"
    ],
    "state": "MD",
    "county": "Cecil",
    "lat": 39.6125,
    "lon": -76.024444,
    "employment": 10,
    "status": "Active",
    "mine_type": "Surface"
  },
  {
    "id": "msha-1901177",
    "name": "WHITE WOLF MINE",
    "operator": "WILLIS ENTERPRISES, INC.",
    "commodity": "Sand, Industrial NEC",
    "mineral_match": [
      "Silicon"
    ],
    "state": "MA",
    "county": "Berkshire",
    "lat": 42.384167,
    "lon": -73.122222,
    "employment": 1,
    "status": "Intermittent",
    "mine_type": "Surface"
  },
  {
    "id": "msha-1901328",
    "name": "Trommel Screen",
    "operator": "Robert B. Our Co., Inc.",
    "commodity": "Sand, Industrial NEC",
    "mineral_match": [
      "Silicon"
    ],
    "state": "MA",
    "county": "Barnstable",
    "lat": 41.691111,
    "lon": -70.126389,
    "employment": 2,
    "status": "Intermittent",
    "mine_type": "Surface"
  },
  {
    "id": "msha-2000420",
    "name": "Humboldt Mill",
    "operator": "Eagle Mine LLC",
    "commodity": "Nickel",
    "mineral_match": [
      "Nickel"
    ],
    "state": "MI",
    "county": "Marquette",
    "lat": 46.411111,
    "lon": -87.835556,
    "employment": 103,
    "status": "Active",
    "mine_type": "Surface"
  },
  {
    "id": "msha-2000608",
    "name": "Rockwood Plant",
    "operator": "U S Silica Company",
    "commodity": "Sand, Industrial NEC",
    "mineral_match": [
      "Silicon"
    ],
    "state": "MI",
    "county": "Wayne",
    "lat": 42.070833,
    "lon": -83.234722,
    "employment": 12,
    "status": "Active",
    "mine_type": "Surface"
  },
  {
    "id": "msha-2000780",
    "name": "Nugent Sand Plant #2",
    "operator": "Nugent Sand Company Inc",
    "commodity": "Sand, Industrial NEC",
    "mineral_match": [
      "Silicon"
    ],
    "state": "MI",
    "county": "Muskegon",
    "lat": 43.348611,
    "lon": -86.236389,
    "employment": 1,
    "status": "Active",
    "mine_type": "Surface"
  },
  {
    "id": "msha-2002685",
    "name": "Pointe North",
    "operator": "CSI Sands NE, Ltd.",
    "commodity": "Sand, Industrial NEC",
    "mineral_match": [
      "Silicon"
    ],
    "state": "MI",
    "county": "Mackinac",
    "lat": 46.018889,
    "lon": -85.035556,
    "employment": 16,
    "status": "Intermittent",
    "mine_type": "Surface"
  },
  {
    "id": "msha-2003454",
    "name": "Eagle Mine",
    "operator": "Eagle Mine LLC",
    "commodity": "Nickel",
    "mineral_match": [
      "Copper",
      "Nickel"
    ],
    "state": "MI",
    "county": "Marquette",
    "lat": 46.743056,
    "lon": -87.879444,
    "employment": 170,
    "status": "Active",
    "mine_type": "Underground"
  },
  {
    "id": "msha-2003503",
    "name": "Screen Plant",
    "operator": "Smily's Excavating & Trucking",
    "commodity": "Sand, Industrial NEC",
    "mineral_match": [
      "Silicon"
    ],
    "state": "MI",
    "county": "Gogebic",
    "lat": 46.410278,
    "lon": -89.567222,
    "employment": 1,
    "status": "Intermittent",
    "mine_type": "Surface"
  },
  {
    "id": "msha-2003672",
    "name": "Coon Hill",
    "operator": "Lester Brothers Excavation Inc.",
    "commodity": "Sand, Industrial NEC",
    "mineral_match": [
      "Silicon"
    ],
    "state": "MI",
    "county": "Jackson",
    "lat": 42.431944,
    "lon": -84.538889,
    "employment": 2,
    "status": "Intermittent",
    "mine_type": "Surface"
  },
  {
    "id": "msha-2100789",
    "name": "New Ulm Quarry",
    "operator": "Martin Marietta Materials Inc.",
    "commodity": "Crushed, Broken Quartzite",
    "mineral_match": [
      "Silicon"
    ],
    "state": "MN",
    "county": "Nicollet",
    "lat": 44.289167,
    "lon": -94.411944,
    "employment": 17,
    "status": "Intermittent",
    "mine_type": "Surface"
  },
  {
    "id": "msha-2103658",
    "name": "Northmet",
    "operator": "NewRange Copper Nickel, LLC",
    "commodity": "Copper",
    "mineral_match": [
      "Copper",
      "Nickel"
    ],
    "state": "MN",
    "county": "St Louis",
    "lat": 47.587222,
    "lon": -92.150556,
    "employment": 13,
    "status": "Active",
    "mine_type": "Surface"
  },
  {
    "id": "msha-2103690",
    "name": "MN Reclamation Crew",
    "operator": "Barton Sand & Gravel Co",
    "commodity": "Sand, Industrial NEC",
    "mineral_match": [
      "Silicon"
    ],
    "state": "MN",
    "county": "Hennepin",
    "lat": 45.123333,
    "lon": -93.412222,
    "employment": 5,
    "status": "Active",
    "mine_type": "Surface"
  },
  {
    "id": "msha-2103743",
    "name": "Hoogland Quarry",
    "operator": "Hardrock Aggregate",
    "commodity": "Crushed, Broken Quartzite",
    "mineral_match": [
      "Silicon"
    ],
    "state": "MN",
    "county": "Rock",
    "lat": 43.774969,
    "lon": -96.199473,
    "employment": 2,
    "status": "Intermittent",
    "mine_type": "Surface"
  },
  {
    "id": "msha-2103886",
    "name": "Elk River Pit",
    "operator": "C.S. McCrossan Construction",
    "commodity": "Sand, Industrial NEC",
    "mineral_match": [
      "Silicon"
    ],
    "state": "MN",
    "county": "Sherburne",
    "lat": 45.372222,
    "lon": -93.565278,
    "employment": 2,
    "status": "Intermittent",
    "mine_type": "Surface"
  },
  {
    "id": "msha-2103890",
    "name": "DNR Pit-Sturgeon Lake",
    "operator": "Rydberg & Sons Inc.",
    "commodity": "Sand, Industrial NEC",
    "mineral_match": [
      "Silicon"
    ],
    "state": "MN",
    "county": "Pine",
    "lat": 45.842778,
    "lon": -92.96,
    "employment": 2,
    "status": "Intermittent",
    "mine_type": "Surface"
  },
  {
    "id": "msha-2103900",
    "name": "Wash Plant",
    "operator": "Decaigny Excavating Inc",
    "commodity": "Sand, Industrial NEC",
    "mineral_match": [
      "Silicon"
    ],
    "state": "MN",
    "county": "Carlton",
    "lat": 46.722222,
    "lon": -92.62,
    "employment": 2,
    "status": "Intermittent",
    "mine_type": "Surface"
  },
  {
    "id": "msha-2103902",
    "name": "Cedarapids Crushing Plant",
    "operator": "Decaigny Excavating Inc",
    "commodity": "Sand, Industrial NEC",
    "mineral_match": [
      "Silicon"
    ],
    "state": "MN",
    "county": "Carlton",
    "lat": 46.696111,
    "lon": -92.392778,
    "employment": 2,
    "status": "Intermittent",
    "mine_type": "Surface"
  },
  {
    "id": "msha-2200786",
    "name": "Quikrete of Picayune",
    "operator": "The Quikrete Companies",
    "commodity": "Sand, Industrial NEC",
    "mineral_match": [
      "Silicon"
    ],
    "state": "MS",
    "county": "Pearl River",
    "lat": 30.505556,
    "lon": -89.7225,
    "employment": 20,
    "status": "Active",
    "mine_type": "Facility"
  },
  {
    "id": "msha-2200817",
    "name": "RockCo Mining LLC-Batesville",
    "operator": "RockCo Mining LLC",
    "commodity": "Sand, Industrial NEC",
    "mineral_match": [
      "Silicon"
    ],
    "state": "MS",
    "county": "Panola",
    "lat": 34.243889,
    "lon": -89.875,
    "employment": 3,
    "status": "Active",
    "mine_type": "Surface"
  },
  {
    "id": "msha-2200834",
    "name": "Green Plant 5",
    "operator": "Green Brothers Gravel Company, Inc.",
    "commodity": "Sand, Industrial NEC",
    "mineral_match": [
      "Silicon"
    ],
    "state": "MS",
    "county": "Copiah",
    "lat": 31.944167,
    "lon": -90.324167,
    "employment": 8,
    "status": "Active",
    "mine_type": "Surface"
  },
  {
    "id": "msha-2200841",
    "name": "Hazlehurst Sand & Gravel",
    "operator": "APAC-MS, INC.",
    "commodity": "Sand, Industrial NEC",
    "mineral_match": [
      "Silicon"
    ],
    "state": "MS",
    "county": "Copiah",
    "lat": 31.874167,
    "lon": -90.1725,
    "employment": 8,
    "status": "Active",
    "mine_type": "Surface"
  },
  {
    "id": "msha-2200849",
    "name": "River Rd Sand & Gravel LLC - Forrest Co",
    "operator": "River Road Sand and Gravel LLC",
    "commodity": "Sand, Industrial NEC",
    "mineral_match": [
      "Silicon"
    ],
    "state": "MS",
    "county": "Forrest",
    "lat": 31.3071,
    "lon": -89.3051,
    "employment": 5,
    "status": "Active",
    "mine_type": "Surface"
  },
  {
    "id": "msha-2200850",
    "name": "Mill Creek Sand and Gravel LLC",
    "operator": "Mill Creek Sand and Gravel, LLC",
    "commodity": "Sand, Industrial NEC",
    "mineral_match": [
      "Silicon"
    ],
    "state": "MS",
    "county": "Copiah",
    "lat": 31.961558,
    "lon": -90.41976,
    "employment": 2,
    "status": "Active",
    "mine_type": "Surface"
  },
  {
    "id": "msha-2200851",
    "name": "McDonald Pit",
    "operator": "McDonald Sand and Gravel LLC",
    "commodity": "Sand, Industrial NEC",
    "mineral_match": [
      "Silicon"
    ],
    "state": "MS",
    "county": "Copiah",
    "lat": 31.986667,
    "lon": -90.3475,
    "employment": 5,
    "status": "Active",
    "mine_type": "Surface"
  },
  {
    "id": "msha-2200854",
    "name": "Imperial Aggregates",
    "operator": "Imperial Aggregates LLC",
    "commodity": "Sand, Industrial NEC",
    "mineral_match": [
      "Silicon"
    ],
    "state": "MS",
    "county": "Forrest",
    "lat": 31.276111,
    "lon": -89.216667,
    "employment": 4,
    "status": "Active",
    "mine_type": "Surface"
  },
  {
    "id": "msha-2200855",
    "name": "Solid Rock Materials",
    "operator": "Solid Rock Materials, LLC",
    "commodity": "Sand, Industrial NEC",
    "mineral_match": [
      "Silicon"
    ],
    "state": "MS",
    "county": "Perry",
    "lat": 31.225,
    "lon": -89.02,
    "employment": 2,
    "status": "Active",
    "mine_type": "Surface"
  },
  {
    "id": "msha-2200856",
    "name": "AJ Mine Terry",
    "operator": "AJ Materials Inc.",
    "commodity": "Sand, Industrial NEC",
    "mineral_match": [
      "Silicon"
    ],
    "state": "MS",
    "county": "Hinds",
    "lat": 32.112222,
    "lon": -90.297778,
    "employment": 3,
    "status": "Active",
    "mine_type": "Surface"
  },
  {
    "id": "msha-2200857",
    "name": "Ripley Sand",
    "operator": "Ripley Sand LLC",
    "commodity": "Sand, Industrial NEC",
    "mineral_match": [
      "Silicon"
    ],
    "state": "MS",
    "county": "Tippah",
    "lat": 34.770278,
    "lon": -88.977778,
    "employment": 2,
    "status": "Active",
    "mine_type": "Surface"
  },
  {
    "id": "msha-2200858",
    "name": "DIDLAKE PIT",
    "operator": "SOLID ROCK SAND AND GRAVEL",
    "commodity": "Sand, Industrial NEC",
    "mineral_match": [
      "Silicon"
    ],
    "state": "MS",
    "county": "Copiah",
    "lat": 32.009167,
    "lon": -90.321389,
    "employment": 3,
    "status": "Active",
    "mine_type": "Surface"
  },
  {
    "id": "msha-2200859",
    "name": "Dees Rocks",
    "operator": "LAN Farms LLC",
    "commodity": "Sand, Industrial NEC",
    "mineral_match": [
      "Silicon"
    ],
    "state": "MS",
    "county": "Copiah",
    "lat": 31.994444,
    "lon": -90.376389,
    "employment": 4,
    "status": "Active",
    "mine_type": "Surface"
  },
  {
    "id": "msha-2300409",
    "name": "Fletcher Mine and Mill",
    "operator": "The Doe Run Company",
    "commodity": "Lead",
    "mineral_match": [
      "Copper",
      "Lead",
      "Zinc"
    ],
    "state": "MO",
    "county": "Reynolds",
    "lat": 37.466389,
    "lon": -91.109167,
    "employment": 189,
    "status": "Active",
    "mine_type": "Underground"
  },
  {
    "id": "msha-2300457",
    "name": "Buick Mine/Mill",
    "operator": "The Doe Run Company",
    "commodity": "Lead",
    "mineral_match": [
      "Lead",
      "Zinc"
    ],
    "state": "MO",
    "county": "Iron",
    "lat": 37.6325,
    "lon": -91.134722,
    "employment": 73,
    "status": "Active",
    "mine_type": "Facility"
  },
  {
    "id": "msha-2300458",
    "name": "Sweetwater Mine/Mill",
    "operator": "The Doe Run Company",
    "commodity": "Lead",
    "mineral_match": [
      "Lead",
      "Zinc"
    ],
    "state": "MO",
    "county": "Reynolds",
    "lat": 37.400833,
    "lon": -91.073611,
    "employment": 157,
    "status": "Active",
    "mine_type": "Underground"
  },
  {
    "id": "msha-2300495",
    "name": "Viburnum #29 Mine",
    "operator": "Doe Run Resources Corp dba Doe Run Company",
    "commodity": "Lead",
    "mineral_match": [
      "Copper",
      "Lead",
      "Zinc"
    ],
    "state": "MO",
    "county": "Washington",
    "lat": 37.755,
    "lon": -91.076667,
    "employment": 7,
    "status": "Active",
    "mine_type": "Underground"
  },
  {
    "id": "msha-2300499",
    "name": "Brushy Creek Mine/Mill",
    "operator": "The Doe Run Company",
    "commodity": "Lead",
    "mineral_match": [
      "Copper",
      "Lead",
      "Zinc"
    ],
    "state": "MO",
    "county": "Iron",
    "lat": 37.4925,
    "lon": -91.110833,
    "employment": 139,
    "status": "Active",
    "mine_type": "Underground"
  },
  {
    "id": "msha-2300544",
    "name": "Pacific Plant",
    "operator": "U.S. Silica Company, LLC",
    "commodity": "Quartz, Ground",
    "mineral_match": [
      "Silicon"
    ],
    "state": "MO",
    "county": "St Louis",
    "lat": 38.483889,
    "lon": -90.724444,
    "employment": 41,
    "status": "Active",
    "mine_type": "Surface"
  },
  {
    "id": "msha-2300695",
    "name": "Randolph Plant #9",
    "operator": "Holliday Sand & Gravel",
    "commodity": "Sand, Industrial NEC",
    "mineral_match": [
      "Silicon"
    ],
    "state": "MO",
    "county": "Clay",
    "lat": 39.153056,
    "lon": -94.492222,
    "employment": 14,
    "status": "Active",
    "mine_type": "Surface"
  },
  {
    "id": "msha-2300706",
    "name": "Pevely Plant",
    "operator": "Covia Solutions LLC",
    "commodity": "Sand, Industrial NEC",
    "mineral_match": [
      "Silicon"
    ],
    "state": "MO",
    "county": "Jefferson",
    "lat": 38.263611,
    "lon": -90.458611,
    "employment": 10,
    "status": "Active",
    "mine_type": "Surface"
  },
  {
    "id": "msha-2301448",
    "name": "Wayland Sand",
    "operator": "Viking Aggregates, Inc.",
    "commodity": "Sand, Industrial NEC",
    "mineral_match": [
      "Silicon"
    ],
    "state": "MO",
    "county": "Clark",
    "lat": 40.359444,
    "lon": -91.455556,
    "employment": 5,
    "status": "Intermittent",
    "mine_type": "Surface"
  },
  {
    "id": "msha-2301597",
    "name": "Quikrete Companys Inc.",
    "operator": "Quikrete Companys Inc",
    "commodity": "Sand, Industrial NEC",
    "mineral_match": [
      "Silicon"
    ],
    "state": "MO",
    "county": "St Louis",
    "lat": 38.550556,
    "lon": -90.478611,
    "employment": 42,
    "status": "Active",
    "mine_type": "Facility"
  },
  {
    "id": "msha-2301770",
    "name": "Madison Mine",
    "operator": "US Strategic Metals",
    "commodity": "Cobalt",
    "mineral_match": [
      "Cobalt"
    ],
    "state": "MO",
    "county": "Madison",
    "lat": 37.559722,
    "lon": -90.293889,
    "employment": 10,
    "status": "Active",
    "mine_type": "Surface"
  },
  {
    "id": "msha-2301800",
    "name": "Viburnum #35 (Casteel Mine)",
    "operator": "Doe Run Co",
    "commodity": "Lead",
    "mineral_match": [
      "Copper",
      "Lead",
      "Zinc"
    ],
    "state": "MO",
    "county": "Iron",
    "lat": 37.656389,
    "lon": -91.1225,
    "employment": 98,
    "status": "Active",
    "mine_type": "Underground"
  },
  {
    "id": "msha-2302201",
    "name": "BMC Sand - Old Monroe",
    "operator": "BMC Sand, LLC",
    "commodity": "Sand, Industrial NEC",
    "mineral_match": [
      "Silicon"
    ],
    "state": "MO",
    "county": "Lincoln",
    "lat": 38.931389,
    "lon": -90.74,
    "employment": 4,
    "status": "Active",
    "mine_type": "Surface"
  },
  {
    "id": "msha-2302278",
    "name": "Hermann Sand-Jefferson City Plant",
    "operator": "Hermann Sand & Gravel Inc",
    "commodity": "Sand, Industrial NEC",
    "mineral_match": [
      "Silicon"
    ],
    "state": "MO",
    "county": "Callaway",
    "lat": 38.640278,
    "lon": -92.1225,
    "employment": 1,
    "status": "Active",
    "mine_type": "Surface"
  },
  {
    "id": "msha-2302387",
    "name": "PORT-CEC #1",
    "operator": "Magruder Limestone Co Inc",
    "commodity": "Crushed, Broken Limestone NEC",
    "mineral_match": [
      "Silicon"
    ],
    "state": "MO",
    "county": "Miller",
    "lat": 39.503333,
    "lon": -91.321111,
    "employment": 4,
    "status": "Intermittent",
    "mine_type": "Surface"
  },
  {
    "id": "msha-2302416",
    "name": "4-E Sand & Gravel",
    "operator": "4-E Sand & Gravel",
    "commodity": "Sand, Industrial NEC",
    "mineral_match": [
      "Silicon"
    ],
    "state": "MO",
    "county": "Dallas",
    "lat": 38.193611,
    "lon": -93.009167,
    "employment": 2,
    "status": "Intermittent",
    "mine_type": "Surface"
  },
  {
    "id": "msha-2302480",
    "name": "Festus Underground",
    "operator": "Fred Weber, Inc.",
    "commodity": "Sand, Industrial NEC",
    "mineral_match": [
      "Silicon"
    ],
    "state": "MO",
    "county": "Jefferson",
    "lat": 38.202222,
    "lon": -90.384167,
    "employment": 1,
    "status": "Intermittent",
    "mine_type": "Surface"
  },
  {
    "id": "msha-2302507",
    "name": "Lickcreek",
    "operator": "MLH Excavation, LLC",
    "commodity": "Sand, Industrial NEC",
    "mineral_match": [
      "Silicon"
    ],
    "state": "MO",
    "county": "Ozark",
    "lat": 36.568056,
    "lon": -92.425,
    "employment": 1,
    "status": "Intermittent",
    "mine_type": "Surface"
  },
  {
    "id": "msha-2302592",
    "name": "Plant 5 / Smreker Supply",
    "operator": "LKM, LLC DBA SMREKER SUPPLY",
    "commodity": "Sand, Industrial NEC",
    "mineral_match": [
      "Silicon"
    ],
    "state": "MO",
    "county": "Jefferson",
    "lat": 38.099444,
    "lon": -90.401667,
    "employment": 4,
    "status": "Intermittent",
    "mine_type": "Surface"
  },
  {
    "id": "msha-2400338",
    "name": "Continental Mine",
    "operator": "Montana Resources, LLC",
    "commodity": "Copper",
    "mineral_match": [
      "Copper",
      "Manganese"
    ],
    "state": "MT",
    "county": "Silver Bow",
    "lat": 46.013056,
    "lon": -112.5225,
    "employment": 388,
    "status": "Active",
    "mine_type": "Surface"
  },
  {
    "id": "msha-2401417",
    "name": "Golden Sunlight Mines Inc",
    "operator": "Golden Sunlight Mines Inc",
    "commodity": "Gold",
    "mineral_match": [
      "Silver"
    ],
    "state": "MT",
    "county": "Jefferson",
    "lat": 45.850833,
    "lon": -112.262222,
    "employment": 54,
    "status": "Active",
    "mine_type": "Surface"
  },
  {
    "id": "msha-2401467",
    "name": "Troy Mine",
    "operator": "Troy Mine Inc.",
    "commodity": "Copper",
    "mineral_match": [
      "Copper",
      "Silver"
    ],
    "state": "MT",
    "county": "Lincoln",
    "lat": 48.463333,
    "lon": -115.889722,
    "employment": 3,
    "status": "Active",
    "mine_type": "Underground"
  },
  {
    "id": "msha-2401490",
    "name": "STILLWATER MINE",
    "operator": "Stillwater Mining Company",
    "commodity": "Platinum",
    "mineral_match": [
      "Iridium",
      "Palladium",
      "Platinum",
      "Rhodium",
      "Ruthenium"
    ],
    "state": "MT",
    "county": "Stillwater",
    "lat": 45.383889,
    "lon": -109.872778,
    "employment": 1123,
    "status": "Active",
    "mine_type": "Underground"
  },
  {
    "id": "msha-2401648",
    "name": "Contact Concentrator",
    "operator": "Contact Mining Company",
    "commodity": "Gold",
    "mineral_match": [
      "Silver"
    ],
    "state": "MT",
    "county": "Granite",
    "lat": 46.318333,
    "lon": -113.286944,
    "employment": 6,
    "status": "Intermittent",
    "mine_type": "Facility"
  },
  {
    "id": "msha-2401879",
    "name": "EAST BOULDER MINE",
    "operator": "Stillwater Mining Company",
    "commodity": "Platinum",
    "mineral_match": [
      "Iridium",
      "Palladium",
      "Platinum",
      "Rhodium",
      "Ruthenium"
    ],
    "state": "MT",
    "county": "Sweet Grass",
    "lat": 45.503611,
    "lon": -110.085833,
    "employment": 446,
    "status": "Active",
    "mine_type": "Underground"
  },
  {
    "id": "msha-2402718",
    "name": "Barry Hatler",
    "operator": "Barry Hatler",
    "commodity": "Gold",
    "mineral_match": [
      "Silver"
    ],
    "state": "MT",
    "county": "Lewis And Clark",
    "lat": 46.616944,
    "lon": -111.949444,
    "employment": 1,
    "status": "Intermittent",
    "mine_type": "Facility"
  },
  {
    "id": "msha-2402786",
    "name": "Henderson",
    "operator": "CIT Construction",
    "commodity": "Gold",
    "mineral_match": [
      "Silver"
    ],
    "state": "MT",
    "county": "Granite",
    "lat": 46.506111,
    "lon": -113.255,
    "employment": 2,
    "status": "Intermittent",
    "mine_type": "Surface"
  },
  {
    "id": "msha-2402794",
    "name": "Bainville",
    "operator": "Asgard Resources",
    "commodity": "Sand, Industrial NEC",
    "mineral_match": [
      "Silicon"
    ],
    "state": "MT",
    "county": "Roosevelt",
    "lat": 48.089167,
    "lon": -104.131944,
    "employment": 6,
    "status": "Intermittent",
    "mine_type": "Surface"
  },
  {
    "id": "msha-2402809",
    "name": "Revenue Mine",
    "operator": "Bear Claw Mining Services",
    "commodity": "Gold",
    "mineral_match": [
      "Silver"
    ],
    "state": "MT",
    "county": "Madison",
    "lat": 45.47,
    "lon": -111.721389,
    "employment": 5,
    "status": "Intermittent",
    "mine_type": "Surface"
  },
  {
    "id": "msha-2501315",
    "name": "Elizabeth Valley Pit (EV Pit)",
    "operator": "Southwest Gravel Products LLC",
    "commodity": "Sand, Industrial NEC",
    "mineral_match": [
      "Silicon"
    ],
    "state": "NE",
    "county": "Phelps",
    "lat": 40.211389,
    "lon": -100.722778,
    "employment": 2,
    "status": "Intermittent",
    "mine_type": "Surface"
  },
  {
    "id": "msha-2501316",
    "name": "Jeffres #3",
    "operator": "Jeffres Sand and Gravel Inc",
    "commodity": "Sand, Industrial NEC",
    "mineral_match": [
      "Silicon"
    ],
    "state": "NE",
    "county": "Brown",
    "lat": 41.772778,
    "lon": -99.125,
    "employment": 4,
    "status": "Intermittent",
    "mine_type": "Surface"
  },
  {
    "id": "msha-2600062",
    "name": "Genesis",
    "operator": "Nevada Gold Mines LLC",
    "commodity": "Gold",
    "mineral_match": [
      "Silver"
    ],
    "state": "NV",
    "county": "Eureka",
    "lat": 40.713889,
    "lon": -116.103889,
    "employment": 250,
    "status": "Active",
    "mine_type": "Surface"
  },
  {
    "id": "msha-2600411",
    "name": "Greystone Mine",
    "operator": "M-I Swaco- A Schlumberger Company",
    "commodity": "Barite",
    "mineral_match": [
      "Barite"
    ],
    "state": "NV",
    "county": "Lander",
    "lat": 40.270556,
    "lon": -116.879722,
    "employment": 2,
    "status": "Active",
    "mine_type": "Surface"
  },
  {
    "id": "msha-2600412",
    "name": "DUNPHY MILL",
    "operator": "Halliburton Energy Services, Inc.",
    "commodity": "Barite",
    "mineral_match": [
      "Barite"
    ],
    "state": "NV",
    "county": "Eureka",
    "lat": 40.708611,
    "lon": -116.526667,
    "employment": 5,
    "status": "Active",
    "mine_type": "Facility"
  },
  {
    "id": "msha-2600500",
    "name": "South Area",
    "operator": "Nevada Gold Mines LLC",
    "commodity": "Gold",
    "mineral_match": [
      "Silver"
    ],
    "state": "NV",
    "county": "Eureka",
    "lat": 40.713889,
    "lon": -116.103889,
    "employment": 1200,
    "status": "Active",
    "mine_type": "Surface"
  },
  {
    "id": "msha-2600550",
    "name": "Phoenix Mine",
    "operator": "Nevada Gold Mines LLC",
    "commodity": "Gold",
    "mineral_match": [
      "Silver"
    ],
    "state": "NV",
    "county": "Lander",
    "lat": 40.504722,
    "lon": -117.146667,
    "employment": 495,
    "status": "Active",
    "mine_type": "Surface"
  },
  {
    "id": "msha-2600594",
    "name": "Smoky Valley Common Operations",
    "operator": "Round Mountain Gold Corporation",
    "commodity": "Gold",
    "mineral_match": [
      "Silver"
    ],
    "state": "NV",
    "county": "Nye",
    "lat": 38.708333,
    "lon": -117.103333,
    "employment": 698,
    "status": "Active",
    "mine_type": "Surface"
  },
  {
    "id": "msha-2600827",
    "name": "Cortez District",
    "operator": "Nevada Gold Mines LLC",
    "commodity": "Gold",
    "mineral_match": [
      "Silver"
    ],
    "state": "NV",
    "county": "Lander",
    "lat": 40.1925,
    "lon": -116.623611,
    "employment": 974,
    "status": "Active",
    "mine_type": "Surface"
  },
  {
    "id": "msha-2600828",
    "name": "Battle Mountain Grinding Plant",
    "operator": "M-I Swaco- A Schlumberger Company",
    "commodity": "Barite",
    "mineral_match": [
      "Barite"
    ],
    "state": "NV",
    "county": "Lander",
    "lat": 40.648611,
    "lon": -116.940833,
    "employment": 13,
    "status": "Active",
    "mine_type": "Facility"
  },
  {
    "id": "msha-2601030",
    "name": "Walker Lane Mining LLC (Rawhide)",
    "operator": "Walker Lane Mining LLC",
    "commodity": "Gold",
    "mineral_match": [
      "Silver"
    ],
    "state": "NV",
    "county": "Mineral",
    "lat": 39.003611,
    "lon": -118.386111,
    "employment": 67,
    "status": "Active",
    "mine_type": "Surface"
  },
  {
    "id": "msha-2601089",
    "name": "Goldstrike Mine",
    "operator": "Nevada Gold Mines LLC",
    "commodity": "Gold",
    "mineral_match": [
      "Silver"
    ],
    "state": "NV",
    "county": "Eureka",
    "lat": 40.713889,
    "lon": -116.103889,
    "employment": 390,
    "status": "Active",
    "mine_type": "Surface"
  },
  {
    "id": "msha-2601317",
    "name": "VICTORIA MINE",
    "operator": "Energy Metal Resources US Inc.",
    "commodity": "Copper",
    "mineral_match": [
      "Copper"
    ],
    "state": "NV",
    "county": "Elko",
    "lat": 40.328333,
    "lon": -114.550556,
    "employment": 3,
    "status": "Active",
    "mine_type": "Underground"
  },
  {
    "id": "msha-2601390",
    "name": "Mountain Springs Beneficiation Plant",
    "operator": "M-I Swaco-A Schlumberger Company",
    "commodity": "Barite",
    "mineral_match": [
      "Barite"
    ],
    "state": "NV",
    "county": "Lander",
    "lat": 40.648611,
    "lon": -116.940833,
    "employment": 14,
    "status": "Intermittent",
    "mine_type": "Facility"
  },
  {
    "id": "msha-2601503",
    "name": "Sterling Mine",
    "operator": "AngloGold Ashanti Sterling Inc.",
    "commodity": "Gold",
    "mineral_match": [
      "Silver"
    ],
    "state": "NV",
    "county": "Nye",
    "lat": 36.827778,
    "lon": -116.633056,
    "employment": 7,
    "status": "Intermittent",
    "mine_type": "Surface"
  },
  {
    "id": "msha-2601597",
    "name": "Granite Creek Mine",
    "operator": "Osgood Mining Company, LLC",
    "commodity": "Gold",
    "mineral_match": [
      "Silver"
    ],
    "state": "NV",
    "county": "Humboldt",
    "lat": 41.136389,
    "lon": -117.275833,
    "employment": 3,
    "status": "Active",
    "mine_type": "Underground"
  },